stop_id,stop_code,stop_name,stop_desc,stop_lat,stop_lon,stop_url
1,1,Paramount / Slauson,,33.97324,-118.113121, 
3,3,Jefferson / 10th,,34.025463,-118.328415, 
4,4,117th / RR-Xing,,33.927444,-118.278931, 
5,5,43rd / Leimert,,34.005524,-118.329964, 
6,6,120th / Augustus F Hawkins,,33.924686,-118.242836, 
7,7,120th / Martin Luther King Hospital,,33.924496,-118.240059, 
8,8,120th / Crenshaw,,33.923809,-118.326897, 
9,9,120th / Freeman,,33.923782,-118.348503, 
10,10,120th / York,,33.92379,-118.344589, 
12,12,15054 Sherman Way,,34.201061,-118.461601, 
14,14,183rd / Los Cerritos Mall,,33.865543,-118.095322, 
16,16,Riverside / Los Feliz,,34.116924,-118.2715, 
25,25,226th / Norwalk,,33.823978,-118.072266, 
26,26,Telstar / County Child Services,,34.068741,-118.066589, 
27,27,2nd / Broadway,,34.013596,-118.495659, 
28,28,Ocean / Broadway,,34.01265,-118.496132, 
29,29,2nd / Santa Monica,,34.015018,-118.49736, 
30,30,3150 Sierra Madre,,34.161282,-118.085304, 
31,31,3rd / Gardner,,34.070232,-118.353271, 
32,32,41st / Ascot,,34.008816,-118.249596, 
33,33,Balboa / Foothill West Jog,,34.322075,-118.495255, 
34,34,Colorado / 4th,,34.01358,-118.492073, 
38,38,5th / Colorado,,34.014191,-118.49054, 
40,40,Hill / 5th,,34.048584,-118.251778, 
42,42,6th / Burlington,,34.057865,-118.27079, 
46,46,7th / Hoover,,34.059612,-118.283974, 
47,47,7th / Maclay,,34.293972,-118.427216, 
49,49,7th / Patton,,33.737846,-118.305733, 
51,51,St Bernard High School,,33.953194,-118.433327, 
54,54,Adams / Lucerne,,34.032452,-118.343903, 
55,55,Adams / Fairfax,,34.032352,-118.370499, 
56,56,Adams / Vermont,,34.032661,-118.291214, 
57,57,California Yacht Club,,33.984161,-118.448479, 
58,58,Admiralty / Marina City,,33.984886,-118.454796, 
59,59,4351 Admiralty Way,,33.985092,-118.452118, 
60,60,Admiralty / Bali,,33.981812,-118.441628, 
62,62,Admiralty / Palawan,,33.98328,-118.45742, 
63,63,Agoura / La Venta,,34.148941,-118.822098, 
65,65,Agoura / Lost Hills,,34.1394,-118.708618, 
66,66,San Vicente / Genesee,,34.057125,-118.360962, 
67,67,Airport / Arbor Vitae,,33.952282,-118.386032, 
69,69,Lankershim / San Fernando,,34.23317,-118.387955, 
70,70,El Monte Busway / Alameda - Union Station,,34.054482,-118.237366, 
71,71,Alameda / El Presidio,,33.842747,-118.221573, 
72,72,23000 S. Alameda,,33.816467,-118.231194, 
73,73,Alameda / Arcadia,,34.054379,-118.237953, 
75,75,Alameda / Sepulveda,,33.808704,-118.234138, 
77,77,Alamo / 60th,,33.983112,-118.174576, 
78,78,Alamo / Gage,,33.977051,-118.175522, 
79,79,Alamo / Randolph,,33.980034,-118.175034, 
85,85,Allen / Colorado,,34.146263,-118.113022, 
86,86,Allen / Washington,,34.169403,-118.112885, 
87,87,Allesandro / Baxter,,34.092434,-118.256531, 
88,88,Allesandro / Ewing,,34.090858,-118.258377, 
89,89,Allesandro / Oak Glen,,34.093754,-118.255188, 
90,90,Allesandro / Sunflower,,34.098915,-118.250618, 
91,91,Allesandro / Whitmore,,34.095798,-118.253563, 
92,92,Alondra / Clark,,33.889427,-118.133789, 
93,93,Alondra / Stevens,,33.889191,-118.130348, 
94,94,Angeles Vista / Harcross,,33.990452,-118.350464, 
95,95,Angeles Vista / Verdun,,33.992649,-118.347862, 
96,96,Angeles Vista / Valley Ridge,,33.99411,-118.34478, 
99,99,Olive / Olympic,,34.042126,-118.259567, 
100,100,Beverly / San Vicente,,34.076698,-118.379326, 
101,101,Arbor Vitae / Aviation,,33.952572,-118.376823, 
102,102,Arbor Vitae / Bellanca,,33.952545,-118.380035, 
103,103,Arbor Vitae / Hindry,,33.952602,-118.372749, 
104,104,Arleta / Branford,,34.236141,-118.41996, 
106,106,Broadway / Gage,,33.982616,-118.278137, 
107,107,Broadway / Gage,,33.982117,-118.278465, 
108,108,Arleta / Kagel Canyon,,34.245087,-118.429436, 
109,109,Arleta / Montague,,34.238819,-118.422798, 
110,110,Arleta / Osborne,,34.241802,-118.425957, 
111,111,Arleta / Pierce,,34.250729,-118.435402, 
112,112,Arleta / Terra Bella,,34.247757,-118.432259, 
113,113,Workman / 2nd,,34.075218,-117.887184, 
114,114,Workman / Palmetto,,34.07542,-117.888542, 
115,115,Sherman Way / Oakdale,,34.200878,-118.566811, 
117,117,Arlington / Martin Luther King Jr,,34.010998,-118.318367, 
118,118,5112 Arlington,,33.996693,-118.318047, 
119,119,Arlington / Country Club,,34.050072,-118.316231, 
120,120,Arlington / Rodeo,,34.01849,-118.317902, 
121,121,Arlington / Santa Monica Fwy,,34.03661,-118.317581, 
122,122,Arlington / Venice,,34.043362,-118.317604, 
123,123,Arlington / 29th,,34.028931,-118.317558, 
124,124,Arlington / 36th,,34.021725,-118.317543, 
125,125,Arlington / 37th,,34.020023,-118.317787, 
126,126,Arlington / 39th,,34.014458,-118.31813, 
127,127,Arlington / 42nd,,34.007385,-118.318352, 
128,128,Arlington / 48th,,33.999886,-118.318031, 
129,129,Arlington / Adams,,34.032455,-118.317558, 
130,130,Arlington / Jefferson,,34.025372,-118.317543, 
131,131,Arlington / Olympic,,34.05233,-118.315086, 
132,132,Arlington / Pico,,34.046959,-118.317551, 
133,133,Vernon / Arlington,,34.003826,-118.318062, 
134,134,Arlington / Washington,,34.039692,-118.317596, 
136,136,Temple / Hill,,34.056438,-118.244225, 
137,137,Beverly / San Vicente,,34.076591,-118.379822, 
138,138,Woodward / Garfield,,34.09766,-118.128304, 
139,139,Van Nuys / Arleta,,34.25407,-118.438347, 
140,140,Artesia / Ainsworth,,33.872696,-118.339218, 
141,141,Artesia / Amie,,33.872696,-118.348045, 
143,143,Artesia / Glenburn,,33.872719,-118.330009, 
144,144,Pacific Coast Highway / Artesia,,33.872513,-118.395485, 
145,145,Artesia / Pacific Coast Highway,,33.872654,-118.395035, 
146,146,Nash / Mariposa Green Line Station,,33.923214,-118.38755, 
147,147,Artesia / Hawthorne,,33.872692,-118.352036, 
148,148,Artesia / Prairie,,33.872704,-118.344055, 
149,149,Artesia / Susana,,33.874134,-118.206795, 
150,150,Artesia / Yukon,,33.872711,-118.335312, 
152,152,Chatsworth Station,,34.253708,-118.598816, 
157,157,Atlantic / 68th,,33.878052,-118.185875, 
158,158,Atlantic / Bell,,33.974659,-118.187309, 
159,159,Lankershim / Chandler,,34.168598,-118.377014, 
160,160,Woodman / Moorpark,,34.150631,-118.431091, 
161,161,Atlantic / Martin Luther King Jr,,33.921371,-118.18721, 
162,162,Atlantic / Patata,,33.955826,-118.183891, 
163,163,Atlantic / Abbott,,33.933697,-118.182587, 
164,164,Atlantic / Agnes,,33.914185,-118.190178, 
165,165,Atlantic / Arlington,,33.906696,-118.193291, 
166,166,Atlantic / Beechwood,,33.92569,-118.185745, 
167,167,Atlantic / Carlin,,33.910156,-118.191841, 
168,168,Atlantic / Cecelia,,33.958248,-118.1847, 
169,169,Atlantic / Clara,,33.965874,-118.186852, 
170,170,Atlantic / Cortland,,33.919006,-118.188179, 
172,172,Atlantic / Artesia,,33.874649,-118.185974, 
173,173,Atlantic / Elizabeth,,33.963493,-118.186249, 
175,175,Atlantic / Fernwood,,33.916447,-118.189247, 
176,176,Rayo / Southern,,33.94656,-118.179787, 
177,177,Atlantic / Firestone,,33.951649,-118.182877, 
178,178,Atlantic / Florence,,33.970055,-118.187859, 
179,179,Atlantic / Gage,,33.978264,-118.186768, 
180,180,Atlantic / Imperial,,33.93095,-118.183266, 
181,181,Atlantic / Live Oak,,33.968254,-118.187439, 
182,182,Atlantic / Michigan,,33.939072,-118.181976, 
183,183,Atlantic / Randolph,,33.981178,-118.186325, 
184,184,Atlantic / Santa Ana,,33.961155,-118.185661, 
185,185,Atlantic / Southern,,33.946499,-118.180946, 
186,186,Atlantic / Southern Pl,,33.948803,-118.181808, 
187,187,Atlantic / Tenaya,,33.936409,-118.182274, 
188,188,Atlantic / Tweedy,,33.941395,-118.181358, 
189,189,Atlantic / Tweedy,,33.941025,-118.181732, 
190,190,Atlantic / 52nd,,33.992432,-118.183678, 
191,191,Atlantic / 55th,,33.990822,-118.184845, 
192,192,Atlantic / 6th,,34.025116,-118.155685, 
193,193,Atlantic / Bandini,,33.998238,-118.174812, 
194,194,Atlantic / Slauson,,33.9874,-118.185379, 
195,195,Telegraph / Atlantic,,34.009319,-118.157906, 
196,196,Van Nuys / Laurel Canyon,,34.259144,-118.431419, 
198,198,Van Nuys / Burbank,,34.171848,-118.448914, 
199,199,Van Nuys / Victory,,34.18639,-118.448814, 
200,200,Van Nuys / Vanowen,,34.193649,-118.448837, 
201,201,Avalon / 169th,,33.878967,-118.264786, 
202,202,Del Amo / Tajauta,,33.846664,-118.243378, 
203,203,Avalon / 228th,,33.819099,-118.26355, 
204,204,Avalon / Albertoni,,33.871708,-118.265976, 
205,205,Avalon / Bayport,,33.814999,-118.263718, 
206,206,Avalon / Carson Mall,,33.843487,-118.263031, 
207,207,Van Nuys / Keswick,,34.209972,-118.448929, 
208,208,Olympic / Mirasol,,34.018681,-118.199669, 
209,209,7th / Butte,,33.737991,-118.306313, 
210,210,Van Nuys / Woodman,,34.246971,-118.448532, 
212,212,Avalon / Idabell,,33.810776,-118.263878, 
213,213,Avalon / Martin Luther King Jr,,34.01086,-118.265411, 
214,214,Van Nuys / Laurel Canyon,,34.258686,-118.432487, 
215,215,Avalon / Vernon,,34.004078,-118.265388, 
217,217,Barham / Lake Hollywood Dr,,34.132175,-118.344238, 
218,218,Hollywood Way / Oak,,34.157497,-118.341774, 
219,219,San Pedro / 81st,,33.965401,-118.269402, 
220,220,Hollywood Way / Burbank,,34.17485,-118.349174, 
221,221,Sherman Way / Laurel Canyon,,34.200748,-118.39679, 
222,222,Compton / Avalon,,33.895313,-118.265045, 
223,223,17700 Avalon,,33.869152,-118.265991, 
224,224,Avalon / University,,33.858475,-118.265976, 
225,225,Del Amo / Tillman,,33.846649,-118.253136, 
226,226,Del Amo / Tillman,,33.846859,-118.253815, 
228,228,Avalon / 103rd,,33.943481,-118.26532, 
229,229,Avalon / 104th,,33.941696,-118.265327, 
230,230,Avalon / 106th,,33.940281,-118.265327, 
231,231,Avalon / 108th,,33.938026,-118.26532, 
232,232,Avalon / 110th,,33.935474,-118.265327, 
233,233,Avalon / Lanzit,,33.932518,-118.26532, 
234,234,Sherman Way / Albertsons,,34.201324,-118.453201, 
235,235,Avalon / 118th,,33.925426,-118.265045, 
236,236,Avalon / 120th,,33.923851,-118.265358, 
237,237,Avalon / 126th,,33.918644,-118.265396, 
238,238,Avalon / 130th,,33.914734,-118.265404, 
239,239,Avalon / 132nd,,33.912922,-118.265419, 
240,240,Avalon / 135th,,33.909298,-118.265427, 
241,241,Avalon / 138th,,33.906551,-118.265442, 
242,242,Avalon / 184th,,33.862904,-118.265991, 
243,243,Del Amo / Central,,33.846657,-118.248207, 
244,244,Del Amo / Central,,33.846909,-118.248863, 
245,245,Avalon / 213th,,33.83564,-118.26355, 
246,246,Avalon / 220th,,33.827713,-118.263527, 
247,247,Avalon / 223rd,,33.824478,-118.263535, 
248,248,Avalon / 41st,,34.009323,-118.265404, 
249,249,Avalon / 42nd,,34.006737,-118.265396, 
250,250,Avalon / 48th,,33.999916,-118.265373, 
251,251,Avalon / 51st,,33.996716,-118.265358, 
252,252,Avalon / 54th,,33.993515,-118.26535, 
253,253,Avalon / 56th,,33.991707,-118.26535, 
254,254,Avalon / 59th,,33.987244,-118.265343, 
255,255,Avalon / 61st,,33.984055,-118.265343, 
256,256,Avalon / 67th,,33.978962,-118.265327, 
257,257,Avalon / 69th,,33.977158,-118.265327, 
258,258,Avalon / 76th,,33.971172,-118.26532, 
259,259,Avalon / 79th,,33.967575,-118.265297, 
260,260,Avalon / 83rd,,33.963894,-118.265289, 
261,261,Avalon / 87th,,33.958187,-118.265282, 
262,262,Avalon / 88th,,33.956276,-118.265289, 
263,263,Avalon / 90th,,33.954823,-118.265289, 
264,264,Avalon / 92nd,,33.953033,-118.265297, 
265,265,Avalon / 94th,,33.950912,-118.265305, 
266,266,Avalon / 98th,,33.947598,-118.265312, 
267,267,Hill / 3rd,,34.051811,-118.249123, 
268,268,Avalon / Alondra,,33.885815,-118.265152, 
269,269,Avalon / San Pedro,,33.88802,-118.265175, 
270,270,Avalon / Carson,,33.831936,-118.263535, 
271,271,7th / Grand,,33.737785,-118.290306, 
272,272,Avalon / Century,,33.94577,-118.26532, 
273,273,Avalon / Colden,,33.949375,-118.265312, 
274,274,Avalon / Compton,,33.895016,-118.265137, 
275,275,Avalon / Del Amo,,33.847809,-118.264648, 
276,276,Van Nuys / Nordhoff,,34.235687,-118.450104, 
277,277,Avalon / El Segundo,,33.916214,-118.265099, 
278,278,Hill / 6th,,34.047546,-118.253113, 
279,279,Avalon / El Segundo,,33.916557,-118.265404, 
280,280,Avalon / Florence,,33.974903,-118.265327, 
281,281,Avalon / Gage,,33.982185,-118.265335, 
282,282,Avalon / Gardena,,33.882172,-118.26442, 
283,283,Avalon / Imperial,,33.930859,-118.265015, 
284,284,Avalon / Imperial,,33.931213,-118.265327, 
285,285,Avalon / Manchester,,33.960297,-118.265274, 
286,286,Avalon / Redondo Beach,,33.893036,-118.26516, 
287,287,Avalon / Rosecrans,,33.902309,-118.265427, 
288,288,Avalon / Sepulveda,,33.808548,-118.263962, 
289,289,Avalon / Slauson,,33.988976,-118.265343, 
290,290,Victoria / Avalon,,33.867115,-118.265923, 
291,291,Avalon / Elsmere,,33.853619,-118.265396, 
292,292,Avalon Green Line Station,,33.927456,-118.265343, 
293,293,Avalon / Realty,,33.806049,-118.263893, 
294,294,Avalon / 116th,,33.929314,-118.265327, 
295,295,Avalon / Scottsdale,,33.812515,-118.263809, 
296,296,UCLA Ackerman Loop Layover,,34.069225,-118.444885, 
297,297,Avalon / Q,,33.795235,-118.263489, 
298,298,Avalon / Walnut,,33.876102,-118.265244, 
300,300,Ave 26 / Lacy Gold Line,,34.081787,-118.220139, 
301,301,Avenue San Luis / Dunman,,34.162289,-118.628563, 
303,303,Avenue San Luis / Valley Circle,,34.158806,-118.636368, 
304,304,East LA College,,34.039101,-118.148033, 
305,305,Avenida Cesar Chavez / Collegian,,34.038254,-118.147408, 
306,306,Avenida Cesar Chavez / Schoolside,,34.040054,-118.150612, 
307,307,Avenida Cesar Chavez / Vancouver,,34.040497,-118.156395, 
308,308,Avenida Cesar Chavez / Westcott,,34.04052,-118.153549, 
309,309,East LA College,,34.03891,-118.148232, 
310,310,Avenue Of The Stars / Constellation,,34.058895,-118.416, 
312,312,Imperial / Aviation,,33.930782,-118.37822, 
313,313,Aviation / 104th,,33.941853,-118.378342, 
314,314,Aviation / 111th,,33.934151,-118.378334, 
317,317,Avalon / 111th,,33.934067,-118.26532, 
319,319,Superior Court House / Pacific Concourse,,33.927696,-118.372055, 
320,320,Balboa / Citronia,,34.246487,-118.502296, 
321,321,Balboa / Roscoe,,34.221474,-118.502525, 
322,322,Balboa / Soccer Fields,,34.179119,-118.50103, 
323,323,Balboa / Tupper,,34.239651,-118.502357, 
324,324,Balboa / San Fernando Mission,,34.271839,-118.50206, 
326,326,Balboa / Burbank,,34.172508,-118.500969, 
327,327,Balboa / Chatsworth,,34.265038,-118.502121, 
328,328,Balboa / Devonshire,,34.25779,-118.50219, 
329,329,Balboa / Hart,,34.197807,-118.500984, 
330,330,Balboa / Haynes,,34.189598,-118.500977, 
331,331,Balboa / Haynes,,34.189049,-118.501282, 
332,332,Balboa / Index,,34.275787,-118.502029, 
333,333,Balboa / Lassen,,34.250088,-118.502266, 
334,334,Balboa / Lorillard,,34.283947,-118.501953, 
336,336,Balboa / Mayall,,34.254143,-118.502235, 
337,337,Balboa / Midwood,,34.287422,-118.501915, 
339,339,Balboa / Moorpark,,34.16029,-118.500946, 
340,340,Balboa / Parthenia,,34.228764,-118.502449, 
341,341,Balboa / Plummer,,34.242798,-118.502327, 
342,342,Balboa / Rayen,,34.231987,-118.502426, 
343,343,Rinaldi / Balboa,,34.2794,-118.501984, 
344,344,Balboa / San Jose,,34.26141,-118.502159, 
345,345,Balboa / Saticoy,,34.208141,-118.500992, 
346,346,Balboa / Sherman Way,,34.201439,-118.500984, 
347,347,Balboa / Stagg,,34.213295,-118.500992, 
348,348,Balboa / Strathern,,34.215809,-118.500992, 
349,349,Balboa / Tulsa,,34.268276,-118.50209, 
350,350,Balboa / Valerio,,34.204926,-118.500977, 
351,351,Balboa / Vanowen,,34.194168,-118.500969, 
352,352,Balboa Blvd / Ventura Fwy,,34.170292,-118.500961, 
353,353,Balboa / Victory,,34.186352,-118.500961, 
354,354,Baldwin / Daines,,34.100365,-118.050888, 
355,355,Baldwin / Garibaldi,,34.11158,-118.053154, 
356,356,Baldwin / La Rosa,,34.094719,-118.049751, 
357,357,Baldwin / Las Tunas,,34.107368,-118.052307, 
358,358,Baldwin / Live Oak,,34.10442,-118.051712, 
359,359,Baldwin / Olive,,34.098763,-118.050568, 
360,360,Baldwin / Camino Real,,34.121929,-118.05526, 
361,361,Baldwin / Duarte,,34.125813,-118.055031, 
362,362,Baldwin / Lemon,,34.11874,-118.054588, 
363,363,Baldwin / Longden,,34.115143,-118.053864, 
364,364,Laurel Canyon / Paxton,,34.264736,-118.438248, 
365,365,Barham / Lake Hollywood,,34.132515,-118.344421, 
366,366,Barham / Forest Lawn,,34.142944,-118.341698, 
367,367,Barranca / Eastland Center,,34.073833,-117.881393, 
369,369,Paramount / Montebello,,34.034424,-118.090729, 
370,370,Beach / 9th,,33.865089,-117.99826, 
371,371,Beach / 10th,,33.863743,-117.998245, 
372,372,Normandie / Carson,,33.831394,-118.299057, 
375,375,Beach / Orangethorpe,,33.859203,-117.998192, 
376,376,Wax Museum,,33.851242,-117.99807, 
378,378,Harbor Beacon Park Ride,,33.747421,-118.280487, 
381,381,Bellevue / Douglas,,34.068272,-118.255783, 
383,383,Bellevue / Glendale,,34.070442,-118.261147, 
384,384,Bellevue / Laveta,,34.069489,-118.258507, 
386,386,Bellflower / Arthurdale,,33.906437,-118.125175, 
387,387,San Gabriel / Sierra Bonita,,34.049244,-118.090652, 
388,388,Bellflower / Somerset,,33.896858,-118.12516, 
389,389,Bellflower / Foster,,33.910027,-118.125191, 
390,390,Bellflower / Imperial,,33.916832,-118.125237, 
392,392,Bellflower / Jefferson,,33.89286,-118.125137, 
393,393,Bellflower / Lakewood,,33.933277,-118.125328, 
394,394,Bellflower / Linden,,33.891006,-118.125145, 
396,396,Bellflower / Rosecrans,,33.901775,-118.125175, 
397,397,Cesar E Chavez / Eastern,,34.040421,-118.173279, 
398,398,Bellflower / Stewart and Gray,,33.92762,-118.125259, 
399,399,Bellflower / Washburn,,33.92416,-118.125252, 
403,403,Beryl / Harbor,,33.846035,-118.393158, 
404,404,Beverly / Hobart,,34.076385,-118.305893, 
405,405,Van Nuys / Sherman Way,,34.200794,-118.448883, 
407,407,Beverly / Belmont,,34.063637,-118.263268, 
410,410,Beverly / Citrus,,33.9883,-118.046288, 
411,411,Beverly / Floral,,33.991531,-118.050705, 
412,412,Beverly / Greenleaf,,33.98801,-118.037529, 
413,413,Beverly / Alvarado,,34.066689,-118.27002, 
414,414,Beverly / Ardmore,,34.076405,-118.302574, 
415,415,Beverly / Benton,,34.070068,-118.277809, 
416,416,Beverly / Berendo,,34.076443,-118.294014, 
417,417,Beverly / Bonnie Brae,,34.065628,-118.26767, 
418,418,Beverly / Commonwealth,,34.073566,-118.285385, 
419,419,Beverly / Hoover,,34.07283,-118.284164, 
420,420,Beverly / Kenmore,,34.076431,-118.296402, 
421,421,Beverly / La Brea,,34.076305,-118.343811, 
422,422,Beverly / Madison,,34.07621,-118.289581, 
424,424,Canon / Santa Monica,,34.071953,-118.402451, 
425,425,Beverly / Normandie,,34.076412,-118.30024, 
426,426,Beverly / Park View,,34.068195,-118.274147, 
427,427,Beverly / Reno,,34.07148,-118.281067, 
428,428,Beverly / Union,,34.064621,-118.26545, 
429,429,Beverly / Vermont,,34.076206,-118.291367, 
430,430,Van Nuys / Sherman Way,,34.201626,-118.448593, 
431,431,Van Nuys / Magnolia,,34.165081,-118.448776, 
432,432,Beverly / Vermont,,34.076458,-118.292007, 
433,433,Beverly / Virgil,,34.075516,-118.286972, 
434,434,Beverly / Western,,34.076382,-118.308899, 
436,436,Beverly / Norwalk,,33.998413,-118.055321, 
437,437,Beverly / Palm,,33.997589,-118.05439, 
438,438,Beverly / Pickering,,33.988026,-118.041725, 
440,440,Van Nuys / Magnolia,,34.164612,-118.448532, 
442,442,Beverly / Western,,34.076126,-118.309395, 
450,450,Bledsoe / Foothill,,34.321083,-118.447456, 
451,451,Bledsoe / Gladstone,,34.323399,-118.444847, 
453,453,Borden / Beaver,,34.303757,-118.438171, 
454,454,7th / Hubbard,,34.302109,-118.43605, 
455,455,Borden / Polk,,34.310169,-118.44648, 
456,456,Borden / Sayre,,34.304802,-118.439537, 
457,457,Cesar E Chavez / Mednik,,34.040722,-118.162216, 
459,459,Brand / Magnolia,,34.131073,-118.254761, 
460,460,Brand / Maple,,34.138622,-118.254822, 
463,463,Brand / Monterey,,34.157715,-118.254921, 
464,464,Brand / Laurel Canyon,,34.274605,-118.449196, 
465,465,Branford / Beachy,,34.233875,-118.423012, 
466,466,Branford / Canterbury,,34.231472,-118.426285, 
467,467,Branford / Dorrington,,34.22884,-118.429947, 
468,468,Van Nuys / Saticoy,,34.208321,-118.448616, 
469,469,Cesar E Chavez / Eastern,,34.04068,-118.173935, 
470,470,Pacific Coast Highway / Heathercliff,,34.022141,-118.809052, 
473,473,Lincoln Park / Altura,,34.075512,-118.202904, 
474,474,Lincoln Park / Altura,,34.075539,-118.202629, 
475,475,Spring / 1st,,34.05278,-118.244804, 
478,478,Broadway / Eagledale,,34.145473,-118.228279, 
479,479,Broadway / Martin Luther King Jr,,34.01091,-118.278221, 
481,481,Temple / Hill,,34.056202,-118.244377, 
483,483,Broadway / Washington,,34.031185,-118.26577, 
484,484,Broadway / Avenue 22,,34.073421,-118.217934, 
485,485,Long Beach / Alondra,,33.888329,-118.207115, 
489,489,Fulton / Oxnard,,34.179127,-118.422585, 
491,491,Fulton / Hatteras,,34.175922,-118.422592, 
492,492,Brunswick / Los Feliz,,34.124874,-118.265427, 
493,493,Fulton / Hatteras,,34.17606,-118.422348, 
494,494,Brunswick / Verdant,,34.131142,-118.268974, 
495,495,Brunswick / Veselich,,34.127022,-118.267105, 
496,496,Buckingham / Hannum,,33.987347,-118.382347, 
497,497,Buckingham / Slauson,,33.988739,-118.380493, 
498,498,Buckingham / Sumner,,33.984188,-118.38398, 
503,503,Burbank / Edward Everett Horton,,34.172142,-118.505142, 
504,504,Burbank / Woodman,,34.172268,-118.431526, 
506,506,Burbank / Yolanda,,34.172413,-118.541756, 
507,507,Burbank / Aldea,,34.17215,-118.507256, 
508,508,Burbank / Balboa,,34.172127,-118.500778, 
509,509,Burbank / Bellaire,,34.172272,-118.409721, 
510,510,Burbank / Coldwater Canyon,,34.172264,-118.413879, 
511,511,Burbank / Encino,,34.172173,-118.514366, 
512,512,Burbank / Encino Golf Clubhouse,,34.168552,-118.496803, 
513,513,Burbank / Ethel,,34.172256,-118.41835, 
514,514,Burbank / Etiwanda,,34.172234,-118.530495, 
515,515,Burbank / Hayvenhurst,,34.166912,-118.49202, 
516,516,Burbank / Hazeltine,,34.172253,-118.439812, 
517,517,Burbank / Lindley,,34.17215,-118.526985, 
518,518,Burbank / Louise,,34.172165,-118.509514, 
519,519,Burbank / Noble,,34.171982,-118.461479, 
520,520,Burbank / Ranchito,,34.172268,-118.435822, 
521,521,Burbank / Fulton,,34.17226,-118.422012, 
522,522,Burbank / Sepulveda,,34.171993,-118.465836, 
523,523,Burbank / Sunnyslope,,34.172264,-118.426689, 
524,524,Burbank / Tyrone,,34.172249,-118.444664, 
525,525,Burbank / Van Nuys,,34.172253,-118.448372, 
526,526,Burbank / White Oak,,34.172173,-118.518204, 
527,527,Burbank / Whitsett,,34.172268,-118.40554, 
528,528,Burbank / Woodley,,34.171516,-118.475815, 
529,529,Burbank / Zelzah,,34.172134,-118.521713, 
533,533,Burton / Foothill,,34.071953,-118.396255, 
535,535,Burton / Doheny,,34.071968,-118.389908, 
536,536,San Vicente / La Cienega,,34.070553,-118.376167, 
537,537,Burton / La Peer,,34.071983,-118.386909, 
538,538,Burton / Palm,,34.071964,-118.39241, 
539,539,Burton / Rexford,,34.07193,-118.398567, 
544,544,10th / Atlantic,,33.779079,-118.186722, 
546,546,Cahuenga / Franklin,,34.105312,-118.330627, 
547,547,Strathern / San Fernando,,34.215794,-118.364685, 
548,548,Cahuenga / Universal Studios,,34.132324,-118.353035, 
549,549,2275 Cahuenga,,34.121529,-118.340775, 
550,550,Coliseum / La Brea,,34.018398,-118.356155, 
551,551,Cahuenga / Regal Pl,,34.134964,-118.360764, 
552,552,Cahuenga / Oakcrest,,34.126438,-118.345383, 
553,553,Santa Monica / Crescent,,34.072887,-118.401665, 
554,554,Cahuenga / Barham,,34.128658,-118.347321, 
555,555,Cahuenga / Barham,,34.128418,-118.347458, 
556,556,Cahuenga / Broadlawn,,34.132961,-118.355675, 
557,557,Van Nuys / Burbank,,34.172401,-118.448387, 
558,558,Cahuenga / Oakshire,,34.130539,-118.350075, 
559,559,Van Nuys / Aetna,,34.179966,-118.448486, 
560,560,Van Nuys / Victory,,34.186939,-118.448517, 
561,561,California / Martin Luther King Jr,,33.936577,-118.208252, 
562,562,California / Duane,,33.948673,-118.206734, 
563,563,California / Michigan,,33.941612,-118.207695, 
564,564,California / Missouri,,33.946442,-118.207069, 
565,565,California / Southern,,33.950928,-118.206421, 
566,566,California / Tenaya,,33.938961,-118.207993, 
567,567,California / Tweedy,,33.94458,-118.207359, 
569,569,Cameron / Grand,,34.056885,-117.867439, 
571,571,Verdugo / Calle Vaquero,,34.163895,-118.232964, 
572,572,Canada / Verdugo Park,,34.171997,-118.229172, 
573,573,Canada / Colina,,34.174263,-118.228806, 
574,574,Canada / Del Valle,,34.184032,-118.228905, 
575,575,Canada / Glorietta,,34.186935,-118.228935, 
576,576,Canada / Hillside,,34.177109,-118.228836, 
577,577,Broadway / Martin Luther King Jr,,34.011269,-118.278526, 
578,578,Canada / Opechee,,34.180557,-118.228874, 
579,579,Canada / Santa Maria,,34.190029,-118.228699, 
580,580,Canada / Wabasso,,34.178249,-118.228844, 
581,581,Candlewood / Downey,,33.853951,-118.151405, 
582,582,Candlewood / Hayter,,33.853878,-118.145927, 
583,583,Candlewood / Lakewood,,33.853893,-118.1427, 
584,584,Candlewood / Obispo,,33.853943,-118.15493, 
585,585,Canoga / Burbank,,34.173149,-118.59729, 
586,586,Canoga / Erwin,,34.182991,-118.59761, 
587,587,Canoga / Trillium Driveway,,34.184742,-118.597626, 
588,588,Ventura / Canoga,,34.168056,-118.597786, 
590,590,Nadeau / Crockett,,33.967274,-118.237091, 
597,597,Bloomfield / Park,,33.867367,-118.063568, 
598,598,Carmenita / Excelsior,,33.895321,-118.046692, 
599,599,Ventura / Winnetka,,34.170948,-118.57058, 
602,602,Carmenita / Mapledale,,33.89854,-118.046738, 
607,607,Carmenita / Rosecrans,,33.902172,-118.046753, 
610,610,Nadeau / Crockett,,33.967491,-118.236748, 
612,612,Catalina / The Village,,33.842102,-118.38839, 
613,613,Cecelia / Atlantic,,33.958298,-118.184242, 
614,614,Centinela / Acacia,,33.976673,-118.364265, 
615,615,Centinela / Sherbourne,,33.976318,-118.381844, 
616,616,Centinela / Braddock,,33.989342,-118.419029, 
617,617,Centinela / Edgewood,,33.975834,-118.354607, 
618,618,Centinela / Green Valley,,33.976902,-118.38636, 
619,619,Centinela / La Tijera,,33.977207,-118.371468, 
620,620,Centinela / Lucille,,33.983047,-118.411407, 
621,621,Centinela / Marina Fwy,,33.985104,-118.413803, 
622,622,Centinela / Beach,,33.97691,-118.367027, 
623,623,Centinela / Inglewood,,33.976444,-118.361504, 
624,624,La Brea / Centinela,,33.976521,-118.357452, 
625,625,Central / 24th,,34.020363,-118.254082, 
627,627,Central / Jefferson,,34.012249,-118.256355, 
629,629,Central / 91 Fwy Westbound Off-ramp,,33.874249,-118.248558, 
631,631,Central / Victoria,,33.867767,-118.248825, 
632,632,Central / 2nd,,34.019871,-117.951263, 
633,633,Central / Mahalo,,33.870808,-118.248543, 
634,634,Central / Stimson,,34.019157,-117.950378, 
636,636,Century / Concourse,,33.945271,-118.375145, 
637,637,Century / Inglewood,,33.945313,-118.361008, 
638,638,Century City Terminal / Constellation,,34.056667,-118.418388, 
639,639,Ventura Pl / Laurel Canyon,,34.144283,-118.394295, 
640,640,Century Park East / Santa Monica,,34.062618,-118.415771, 
641,641,Gridley / 184th,,33.86438,-118.091034, 
642,642,183rd / Sears,,33.865742,-118.095322, 
643,643,Atlantic / Avenida Cesar Chavez,,34.037422,-118.146835, 
644,644,Broadway / Thomas,,34.073898,-118.205406, 
645,645,54th / Crenshaw,,33.993027,-118.331009, 
646,646,Riggin / Atlantic,,34.037197,-118.146355, 
648,648,Cesar E Chavez / Mission,,34.054085,-118.225533, 
650,650,Cesar E Chavez / Soto,,34.04681,-118.20816, 
652,652,Cesar E Chavez / Vignes,,34.056557,-118.232185, 
653,653,Hooper / 42nd,,34.006779,-118.252243, 
655,655,Alameda / Cesar E Chavez,,34.057812,-118.237274, 
656,656,Cesar E Chavez / Alameda,,34.057835,-118.236641, 
657,657,Hooper / Vernon,,34.004028,-118.252243, 
658,658,Belvedere County Park,,34.040478,-118.159073, 
659,659,Cesar E Chavez / Boyle,,34.050941,-118.2174, 
660,660,Cesar E Chavez / Spring,,34.05809,-118.238823, 
661,661,Cesar E Chavez / Dangler,,34.040462,-118.164986, 
662,662,Cesar E Chavez / Ditman,,34.040363,-118.189423, 
664,664,Cesar E Chavez / Evergreen,,34.043488,-118.200615, 
665,665,Cesar E Chavez / Ford,,34.040443,-118.168861, 
666,666,Cesar E Chavez / Fresno,,34.041706,-118.196602, 
667,667,Hooper / 48th,,33.999439,-118.252243, 
668,668,Cesar E Chavez / Grand,,34.060314,-118.243713, 
669,669,Cesar E Chavez / Hazard,,34.040401,-118.180031, 
670,670,Cesar E Chavez / Humphreys,,34.040436,-118.171547, 
671,671,Cesar E Chavez / Indiana,,34.040337,-118.192139, 
672,672,Cesar E Chavez / Echandia,,34.051754,-118.219208, 
673,673,Cesar E Chavez / Lyon,,34.056099,-118.230614, 
674,674,Cesar E Chavez / Marianna,,34.040417,-118.175407, 
675,675,Cesar E Chavez / McDonnell,,34.040455,-118.166679, 
676,676,Mednik / Cesar E Chavez,,34.04073,-118.162003, 
677,677,Cesar E Chavez / Mott,,34.045086,-118.204277, 
678,678,Cesar E Chavez / Progress,,34.052753,-118.222122, 
679,679,Cesar E Chavez / Record,,34.040394,-118.181938, 
680,680,Cesar E Chavez / New High,,34.05817,-118.239708, 
681,681,Cesar E Chavez / Saint Louis,,34.048397,-118.211708, 
682,682,Cesar E Chavez / State,,34.050041,-118.215378, 
683,683,Cesar E Chavez / Vignes,,34.05682,-118.232147, 
684,684,Cesar E Chavez / Warren,,34.052227,-118.220245, 
685,685,Chandler / Beck,,34.16877,-118.383705, 
686,686,Chandler / Colfax,,34.168797,-118.387581, 
687,687,Chandler / Corteen,,34.168766,-118.402184, 
688,688,Chandler / Laurel Canyon,,34.16877,-118.396286, 
689,689,Chandler / Radford,,34.168781,-118.392334, 
690,690,Chandler / Tujunga,,34.168983,-118.379295, 
691,691,Chandler / Whitsett,,34.168766,-118.405037, 
692,692,Chase / Hazeltine,,34.225288,-118.440651, 
693,693,Chase / Katherine,,34.224838,-118.443207, 
694,694,Chase / Lennox,,34.224705,-118.446136, 
695,695,Chase / Ranchito,,34.226566,-118.437225, 
696,696,Van Nuys / Chase,,34.224483,-118.448921, 
697,697,Chase / Woodman,,34.227791,-118.434555, 
699,699,Louise / Chatsworth,,34.26511,-118.510872, 
701,701,Buena Vista / Alameda,,34.15836,-118.328354,
702,702,Riverside / Laurel Canyon,,34.157524,-118.396721, 
703,703,Chatsworth Station,,34.25338,-118.599052, 
704,704,Chevy Chase / Glendale Adventist Hospital,,34.152264,-118.23114, 
705,705,Church / Farlin,,34.06813,-118.463089, 
706,706,Church / Homedale,,34.069298,-118.464104, 
707,707,Church / Joffre,,34.070518,-118.465248, 
708,708,Cal State LA Busway Station,,34.063259,-118.168365, 
709,709,Western / Pacific Coast Highway,,33.78928,-118.307465, 
711,711,Western / Pacific Coast Highway,,33.7892,-118.307762, 
712,712,City Terrace / Lafler,,34.057426,-118.173546, 
713,713,City Terrace / Alma,,34.048744,-118.192017, 
714,714,City Terrace / Bonnie Beach,,34.055721,-118.181152, 
715,715,City Terrace / Ditman,,34.048832,-118.18927, 
717,717,City Terrace / Herbert,,34.055359,-118.183403, 
718,718,City Terrace / Rowan,,34.054279,-118.187553, 
719,719,City Terrace / Pomeroy,,34.050892,-118.188705, 
720,720,City Terrace / Van Pelt,,34.055893,-118.176804, 
721,721,Civic Center / Malibu Performing Arts Center,,34.036415,-118.688164, 
722,722,Civic Center / Webb,,34.035744,-118.69133, 
723,723,Civic Center / Winter Canyon,,34.037029,-118.699348, 
724,724,Duarte / Buena Vista,,34.132355,-117.977249, 
725,725,Norwalk / Civic Center,,33.82972,-118.072067, 
726,726,Business Center / Highland,,34.134315,-117.966911, 
727,727,Clark / Ives,,33.894417,-118.134125, 
728,728,Clark / Linden,,33.891609,-118.134117, 
729,729,Cliffside / Dume,,34.005688,-118.804649, 
730,730,Clinton / Hoover,,34.081692,-118.284622, 
732,732,Vanowen / Clybourn,,34.19384,-118.363853, 
739,739,Rosemead / Huntington,,34.13073,-118.073326, 
741,741,Coliseum / Martin Luther King Jr,,34.017246,-118.346069,
742,742,Coliseum / Potomac,,34.018154,-118.344376, 
743,743,Coliseum / West,,34.018147,-118.340927, 
744,744,Coliseum / Cherrywood,,34.018147,-118.329224, 
745,745,Coliseum / Crenshaw,,34.018131,-118.335526, 
746,746,Coliseum / Grayburn,,34.018135,-118.332108, 
747,747,Coliseum / Hepburn,,34.018841,-118.32531, 
748,748,Coliseum / Nicolet,,34.018173,-118.350113, 
749,749,Coliseum / La Brea,,34.018223,-118.355255, 
750,750,Sycamore / Coliseum,,34.018875,-118.356789, 
751,751,Coliseum / Stevely,,34.018211,-118.353798, 
752,752,Coliseum / Wellington,,34.018143,-118.338455, 
754,754,Burbank / White Oak,,34.172359,-118.518387, 
755,755,Collegian / Avenida Cesar Chavez,,34.038521,-118.146606, 
756,756,Hollywood Way / Magnolia,,34.168175,-118.346954, 
758,758,Colorado / Ellenwood,,34.140091,-118.218803, 
759,759,Hooper / 51st,,33.997231,-118.252243, 
760,760,Lake / Colorado,,34.146133,-118.132187, 
761,761,Paramount / 70th,,33.88216,-118.159874, 
762,762,Colorado / Argus,,34.139198,-118.206398, 
763,763,Colorado / Avenue 64,,34.14077,-118.180405, 
764,764,Colorado / Broadway,,34.142632,-118.22464, 
765,765,Colorado / Eagle Rock,,34.139259,-118.214302, 
766,766,Hooper / 55th,,33.992729,-118.252228, 
767,767,Hooper / Slauson,,33.989048,-118.252228, 
768,768,Colorado / Broadway,,34.142887,-118.224968, 
769,769,Hooper / 60th,,33.985359,-118.25222, 
770,770,Colorado / El Rio,,34.139599,-118.216125, 
771,771,Hooper / Gage,,33.982277,-118.252182, 
772,772,Colorado / Genevieve,,34.13768,-118.190475, 
773,773,Colorado / Glengarry,,34.140591,-118.182678, 
774,774,Colorado / Highland View,,34.139389,-118.208656, 
775,775,Colorado / Loleta,,34.13932,-118.197998, 
776,776,Colorado / Maywood,,34.139305,-118.211441, 
778,778,Colorado / Mount Royal,,34.139553,-118.203171, 
781,781,Colorado / Mount Helena,,34.139595,-118.195656, 
782,782,Colorado / Mount Royal,,34.139275,-118.20385, 
785,785,Figueroa / La Loma,,34.136501,-118.188026, 
786,786,Colorado / Sierra Villa,,34.14217,-118.22274, 
787,787,Colorado / Townsend,,34.139618,-118.200806, 
788,788,Colorado / Wiota,,34.138191,-118.191948, 
789,789,Compton / 105th,,33.940418,-118.246117, 
790,790,Somerset / Lakewood,,33.896412,-118.142967, 
791,791,Compton / Tajauta,,33.89571,-118.246498, 
792,792,Compton / White,,33.896008,-118.195763, 
793,793,Compton / 103rd,,33.943024,-118.246124, 
794,794,Hooper / Gage,,33.982311,-118.251945, 
795,795,Compton / 108th,,33.93816,-118.246124, 
796,796,Compton / 111th,,33.93457,-118.246162, 
797,797,Compton / 113th,,33.931931,-118.246162, 
798,798,Compton / 118th,,33.926197,-118.246147, 
799,799,Compton / 32nd,,34.012604,-118.248466, 
800,800,Compton / 42nd,,34.00642,-118.247238, 
801,801,Compton / 46th,,34.002048,-118.24762, 
802,802,Compton / 48th Pl,,33.999149,-118.24762, 
803,803,Compton / 51st,,33.996449,-118.24762, 
804,804,Compton / 53rd,,33.994617,-118.247612, 
805,805,Compton / 55th,,33.993145,-118.247917, 
806,806,Compton / 60th,,33.985962,-118.247589, 
807,807,Compton / 66th,,33.979874,-118.247543, 
808,808,Compton / 68th,,33.978279,-118.247543, 
809,809,Compton / 70th,,33.976223,-118.247528, 
810,810,Compton / 75th,,33.972332,-118.247513, 
811,811,Compton / 76th,,33.970615,-118.247513, 
812,812,Compton / 81st,,33.965599,-118.247505, 
813,813,Compton / 83rd,,33.963081,-118.247505, 
814,814,Compton / 95th,,33.950428,-118.245987, 
815,815,Compton / 96th,,33.948864,-118.246048, 
816,816,Compton / 98th,,33.947475,-118.246109, 
817,817,Compton / Century,,33.945484,-118.246124, 
818,818,Compton / Florence,,33.974518,-118.247513, 
819,819,Compton / Gage,,33.981857,-118.247551, 
820,820,Imperial / Compton,,33.929604,-118.246582, 
821,821,Hooper / 60th,,33.985085,-118.251976, 
822,822,Compton / Slauson,,33.989105,-118.247597, 
823,823,Compton / Vernon,,34.004154,-118.24736, 
824,824,Compton / Firestone,,33.960438,-118.247437, 
825,825,41st / Compton,,34.008553,-118.24765, 
826,826,Compton / Nadeau,,33.967213,-118.24752, 
827,827,Somerset / Touchwood,,33.896446,-118.138161, 
829,829,Hooper / Slauson,,33.989117,-118.251991, 
835,835,Constellation / Century Park West,,34.057373,-118.41761, 
838,838,Corbin / RR-Xing,,34.233917,-118.562195, 
839,839,Corbin / Nordhoff,,34.235756,-118.562195, 
840,840,Nordhoff / Corbin,,34.232117,-118.562637, 
841,841,Hooper / 55th,,33.99287,-118.251984, 
842,842,Corbin / Prairie,,34.238968,-118.562195, 
843,843,Corbin / Nordhoff Way,,34.232265,-118.562195, 
846,846,Crenshaw / Venice,,34.045029,-118.328079, 
847,847,Crenshaw / 132nd,,33.91238,-118.326363, 
848,848,144th / Crenshaw,,33.900894,-118.32637, 
849,849,Hooper / 51st,,33.996506,-118.251991, 
850,850,Crenshaw / 147th,,33.898567,-118.326385, 
851,851,Crenshaw / El Camino College,,33.88483,-118.326385, 
852,852,Florence / Crenshaw,,33.974396,-118.330307, 
853,853,Hooper / 48th,,34.000076,-118.252007, 
855,855,Hooper / Vernon,,34.003757,-118.252007, 
858,858,Hooper / 42nd,,34.006504,-118.252007, 
859,859,Crenshaw / Northrop,,33.919365,-118.32637, 
860,860,Crenshaw / Saint Charles,,34.041958,-118.329758, 
862,862,Crenshaw Green Line Station,,33.925037,-118.326355, 
863,863,Park / Plaza Roadway,,33.904938,-118.393814, 
864,864,Crenshaw / Martin Luther King Jr,,34.010746,-118.334961, 
865,865,Crenshaw / 139th,,33.90583,-118.326385, 
866,866,Crenshaw / 171st,,33.875065,-118.326347, 
867,867,Crenshaw / 8th,,33.962017,-118.326904, 
868,868,Crenshaw / Coliseum,,34.018509,-118.334961, 
869,869,Crenshaw / Country Club,,34.052887,-118.323784, 
871,871,Santa Monica / Bronson,,34.090626,-118.317734, 
872,872,Crenshaw / Manhattan Beach,,33.887188,-118.326385, 
873,873,Crenshaw / Marine,,33.894451,-118.326385, 
874,874,Crenshaw / Rodeo,,34.021233,-118.334953, 
876,876,Crenshaw / Stocker,,34.008228,-118.334953, 
878,878,Santa Monica / Bronson,,34.090878,-118.317772, 
879,879,Westwood / Stein Plaza,,34.065845,-118.445183, 
880,880,Crenshaw / 104th,,33.942116,-118.326332, 
881,881,Crenshaw / 135th,,33.909466,-118.326385, 
882,882,Crenshaw / 154th,,33.891289,-118.326385, 
883,883,Crenshaw / 166th,,33.879948,-118.326355, 
884,884,Crenshaw / 168th,,33.877731,-118.326355, 
885,885,Crenshaw / 23rd,,34.036602,-118.332718, 
886,886,Crenshaw / 29th,,34.02932,-118.334953, 
887,887,Crenshaw / 30th,,34.027905,-118.334961, 
888,888,Rodeo / La Cienega,,34.021553,-118.371872, 
889,889,Sepulveda / Park,,33.906158,-118.395866, 
890,890,43rd / Crenshaw,,34.005547,-118.333611, 
891,891,43rd / Crenshaw,,34.005432,-118.333511, 
892,892,Crenshaw / 43rd,,34.00568,-118.333817, 
893,893,Crenshaw / 48th,,34.000282,-118.330627, 
894,894,Crenshaw / 50th,,33.997955,-118.330643, 
895,895,Crenshaw / 52nd,,33.995247,-118.33065, 
896,896,Crenshaw / 54th,,33.993401,-118.33065, 
898,898,Firestone / State,,33.954628,-118.211983, 
899,899,Crenshaw / 57th,,33.99115,-118.330658, 
900,900,Crenshaw / 59th,,33.987041,-118.330681, 
901,901,Crenshaw / 60th,,33.985264,-118.330688, 
902,902,Crenshaw / 63rd,,33.982777,-118.330704, 
903,903,Crenshaw / 67th,,33.978413,-118.330727, 
904,904,Crenshaw / 76th,,33.970741,-118.330704, 
905,905,Crenshaw / 78th,,33.968941,-118.330704, 
906,906,Los Angeles / Arcadia,,34.055428,-118.239136, 
908,908,Crenshaw / 8th,,34.058945,-118.320457, 
909,909,Crenshaw / 9th,,34.056179,-118.321983, 
911,911,Crenshaw / Adams,,34.032433,-118.334892, 
915,915,Crenshaw / El Segundo,,33.917,-118.326378, 
916,916,Crenshaw / Florence,,33.9748,-118.330711, 
917,917,Crenshaw / Jefferson,,34.02536,-118.334946, 
918,918,Crenshaw / Olympic,,34.054409,-118.322945, 
919,919,Crenshaw / Pico,,34.047581,-118.326691, 
920,920,Pico / Crenshaw,,34.047737,-118.327232, 
921,921,Crenshaw / Redondo Beach,,33.883179,-118.32637, 
922,922,Compton / Willowbrook,,33.895821,-118.223007, 
923,923,Crenshaw / Rosecrans,,33.90173,-118.326393, 
924,924,Rosecrans / Crenshaw,,33.901787,-118.326004, 
925,925,Slauson / Crenshaw,,33.989143,-118.331154, 
926,926,Crenshaw / 43rd,,34.004436,-118.332703, 
928,928,Wilshire / Crenshaw,,34.061615,-118.319405, 
930,930,3835 Cross Creek,,34.035866,-118.685501, 
931,931,Cal State LA Busway Station,,34.062485,-118.167999, 
932,932,Cal State Dominguez Hills,,33.866924,-118.255287, 
952,952,Culver / Vista Del Mar,,33.958645,-118.448662, 
954,954,Fair Oaks / Woodbury,,34.183449,-118.15097, 
955,955,Hill / 5th,,34.049557,-118.251205, 
957,957,Cypress / Alice,,34.095238,-118.227745, 
958,958,Cypress / Arvia,,34.096424,-118.229561, 
959,959,Broadway / Griffin,,34.073559,-118.211479, 
960,960,Cypress / Elm,,34.098171,-118.232292, 
961,961,Cypress / Idell,,34.0882,-118.221718, 
962,962,Cypress / Maceo,,34.093338,-118.225273, 
963,963,Cypress / Macon,,34.100761,-118.234535, 
964,964,Cypress / Figueroa,,34.086662,-118.219238, 
965,965,Cypress / Pepper,,34.090878,-118.223183, 
966,966,Daly / Avenue 26,,34.076336,-118.215538, 
967,967,Rodeo / Hauser,,34.021439,-118.366066, 
968,968,Van Nuys / Huston,,34.159256,-118.448586, 
969,969,Van Nuys / Huston,,34.159557,-118.448814, 
970,970,Gardendale / Somerset Ranch,,33.91362,-118.149345, 
971,971,Gardendale / Brookshire,,33.913517,-118.148674, 
972,972,De Soto / RR-Xing,,34.239353,-118.588707, 
973,973,De Soto / Burbank,,34.171741,-118.588364, 
974,974,De Soto / Burbank,,34.173431,-118.588394, 
975,975,De Soto / Chase,,34.224277,-118.588676, 
976,976,De Soto / El Rancho,,34.184914,-118.588753, 
977,977,De Soto / Erwin,,34.182823,-118.590424, 
978,978,De Soto / Hart,,34.197124,-118.5886, 
979,979,De Soto / Ingomar,,34.212078,-118.588654, 
980,980,De Soto / Kittridge,,34.190891,-118.588585, 
981,981,De Soto / Lassen,,34.249706,-118.588715, 
982,982,De Soto / Nordhoff,,34.23518,-118.588692, 
983,983,De Soto / Osborne,,34.232758,-118.588699, 
984,984,De Soto / Oxnard,,34.179386,-118.590622, 
985,985,De Soto / Parthenia,,34.22834,-118.588684, 
986,986,De Soto / Plummer,,34.242859,-118.588715, 
987,987,De Soto / Roscoe,,34.219658,-118.588669, 
988,988,De Soto / Saticoy,,34.208023,-118.588638, 
989,989,De Soto / Sherman Way,,34.200699,-118.588623, 
990,990,De Soto / Strathern,,34.215282,-118.588661, 
991,991,De Soto / Superior,,34.246494,-118.588707, 
992,992,De Soto / Valerio,,34.204407,-118.588631, 
993,993,De Soto / Vanowen,,34.193504,-118.5886, 
994,994,Ventura / De Soto,,34.16655,-118.588455, 
997,997,Victory / De Soto,,34.188217,-118.588676, 
998,998,De Soto / Victory,,34.188068,-118.5886, 
999,999,Del Amo Station Bay 5,,33.847725,-118.211243, 
1009,1009,Del Mar / Madre,,34.142303,-118.081886, 
1010,1010,Del Mar / Lotus,,34.142353,-118.076256, 
1011,1011,Del Mar / Rosemead,,34.142403,-118.073669, 
1012,1012,Devonshire / Melvin,,34.257133,-118.560234, 
1013,1013,Devonshire / Amestoy,,34.257416,-118.506386, 
1014,1014,Devonshire / Balboa,,34.257633,-118.502159, 
1015,1015,Devonshire / Burnet,,34.257133,-118.463173, 
1016,1016,Devonshire / Canoga,,34.257103,-118.597481, 
1017,1017,Devonshire / Corbin,,34.257141,-118.562485, 
1018,1018,Devonshire / De Soto,,34.257103,-118.588753, 
1019,1019,Temple / Alameda,,34.050983,-118.237816, 
1020,1020,Devonshire / Encino,,34.257462,-118.515106, 
1021,1021,Devonshire / Etiwanda,,34.257141,-118.531418, 
1023,1023,Devonshire / Gothic,,34.257301,-118.488853, 
1024,1024,Devonshire / Haskell,,34.257229,-118.47628, 
1025,1025,Devonshire / Hayvenhurst,,34.257336,-118.493774, 
1027,1027,Devonshire / Lemona,,34.257103,-118.458321, 
1028,1028,Devonshire / Lindley,,34.257141,-118.527512, 
1029,1029,Devonshire / Louise,,34.25745,-118.511246, 
1030,1030,Devonshire / Lurline,,34.257122,-118.583855, 
1031,1031,Devonshire / Mason,,34.257122,-118.579994, 
1032,1032,Devonshire / Montgomery,,34.257263,-118.4813, 
1033,1033,Devonshire / Oakdale,,34.257133,-118.566376, 
1034,1034,Devonshire / Oso,,34.257126,-118.574638, 
1035,1035,Devonshire / Owensmouth,,34.257343,-118.601929, 
1036,1036,Devonshire / Petit,,34.257362,-118.498138, 
1037,1037,Devonshire / Reseda,,34.257133,-118.535767, 
1038,1038,Devonshire / Sepulveda,,34.257172,-118.467072, 
1039,1039,Devonshire / Tampa,,34.25713,-118.553139, 
1040,1040,Devonshire / Topanga Canyon,,34.257084,-118.605705, 
1041,1041,Devonshire / Tunney,,34.257126,-118.558121, 
1042,1042,Devonshire / Vanalden,,34.25713,-118.548889, 
1043,1043,Devonshire / Variel,,34.257111,-118.592606, 
1044,1044,Devonshire / White Oak,,34.2575,-118.520012, 
1045,1045,Devonshire / Wilbur,,34.257133,-118.545006, 
1046,1046,Devonshire / Winnetka,,34.257137,-118.570587, 
1047,1047,Devonshire / Woodley,,34.257282,-118.485023, 
1048,1048,Devonshire / Woodman,,34.257072,-118.454437, 
1049,1049,Devonshire / Zelzah,,34.257282,-118.522964, 
1054,1054,Tyler / Mildred,,34.066536,-118.036125, 
1055,1055,Tyler / Mildred,,34.066582,-118.035812, 
1056,1056,Harbor / I-105 Layover,,33.929588,-118.280701, 
1060,1060,Disneyland Employee Entrance / Harbor,,33.809727,-117.915581, 
1061,1061,District / Cudahy,,33.994629,-118.18441, 
1062,1062,District / Produce Plaza,,34.00042,-118.203918, 
1063,1063,District / Corona,,33.999378,-118.193558, 
1064,1064,District / 50th,,33.99617,-118.187004, 
1065,1065,District / Gifford,,33.998405,-118.190804, 
1066,1066,District / Loma Vista,,33.999805,-118.197723, 
1067,1067,District / Maywood,,34.000278,-118.202415, 
1069,1069,Woodlake / Medical Center,,34.203991,-118.632027, 
1070,1070,Santa Monica / 17th,,34.026379,-118.482635, 
1071,1071,Peck / Lower Azusa,,34.090744,-118.01442, 
1072,1072,Peck / Lower Azusa,,34.091095,-118.01458, 
1086,1086,Dorothy / Chesebro,,34.142277,-118.740601, 
1088,1088,Duarte / Buena Vista,,34.132156,-117.977219, 
1090,1090,Duarte / Delford,,34.132133,-117.980011, 
1091,1091,Santa Monica / 17th,,34.026394,-118.483124, 
1092,1092,Duarte / La Cadena,,34.126705,-118.049614, 
1093,1093,Duarte / Magnolia,,34.132076,-118.005051, 
1094,1094,Duarte / Mountain,,34.132103,-117.986153, 
1095,1095,Duarte / Warrington,,34.132114,-117.983383, 
1096,1096,Dume / Bluewater,,34.010132,-118.806404, 
1097,1097,Grayfox / Dume,,34.012932,-118.806267, 
1104,1104,103rd / Avalon,,33.943626,-118.264694, 
1105,1105,103rd / Clovis,,33.943188,-118.256668, 
1106,1106,103rd / Compton,,33.943115,-118.246506, 
1107,1107,103rd / Compton,,33.943363,-118.246071, 
1108,1108,103rd / Gorman,,33.942978,-118.230324, 
1110,1110,103rd / Graham,,33.943348,-118.242821, 
1111,1111,103rd / Grape,,33.943012,-118.237053, 
1112,1112,103rd / Juniper,,33.942989,-118.232918, 
1113,1113,103rd / Lou Dillon,,33.942997,-118.234482, 
1114,1114,103rd / McKinley,,33.943203,-118.260986, 
1115,1115,103rd / Alameda,,33.942959,-118.228142, 
1117,1117,103rd / Stanford,,33.943253,-118.262688, 
1118,1118,103rd / Success,,33.94313,-118.248802, 
1119,1119,Eagle Rock / York Terminal,,34.123238,-118.222252, 
1120,1120,103rd / Zamora Walk,,33.94315,-118.250542, 
1126,1126,2250 119th St,,33.924492,-118.232002, 
1131,1131,Main / 11th,,34.038887,-118.258118, 
1133,1133,Avalon / 120th,,33.923576,-118.265053, 
1134,1134,120th / Avalon,,33.923615,-118.264877, 
1136,1136,120th / Central,,33.923817,-118.25457, 
1140,1140,120th / Stanford,,33.92382,-118.261986, 
1142,1142,120th / Wadsworth,,33.923817,-118.258369, 
1149,1149,1st / Mission,,34.047585,-118.227623, 
1150,1150,1st / Boyle,,34.047112,-118.220009, 
1152,1152,1st / Chicago,,34.044331,-118.212769, 
1153,1153,1st / Utah,,34.047424,-118.225082, 
1154,1154,1st / Cummings,,34.045368,-118.215157, 
1156,1156,1st / Ditman,,34.035923,-118.189339, 
1157,1157,1st / Evergreen,,34.040398,-118.202591, 
1159,1159,1st / Rowan,,34.035938,-118.186745, 
1161,1161,Long Beach Transit Mall,,33.76812,-118.189728, 
1162,1162,1st / Lorena,,34.036922,-118.194786, 
1166,1166,1st / Main,,34.051907,-118.243256, 
1169,1169,1st / Mott,,34.041851,-118.205864, 
1173,1173,1st / Soto,,34.043678,-118.210052, 
1175,1175,1st / State,,34.046486,-118.217651, 
1178,1178,1st / Fresno,,34.038784,-118.19899, 
1185,1185,Hooper / 41st,,34.008621,-118.252243, 
1188,1188,41st / Central,,34.009129,-118.256172, 
1189,1189,4th / Evergreen,,34.0373,-118.204063, 
1198,1198,El Monte Station - Layover,,34.071507,-118.04332, 
1203,1203,Argyle / Hollywood,,34.101414,-118.325272, 
1204,1204,5th / Wall,,34.044865,-118.245552, 
1206,1206,Hollywood / Western,,34.101856,-118.308777, 
1208,1208,1st / Los Angeles,,34.051846,-118.24263, 
1209,1209,6th / Gladys,,34.040108,-118.242035, 
1210,1210,6th / Central,,34.039349,-118.240753, 
1211,1211,6th / Mateo,,34.038124,-118.232849, 
1212,1212,6th / Central,,34.03867,-118.239548, 
1213,1213,Central / 6th,,34.039192,-118.239799, 
1214,1214,6th / Main,,34.04504,-118.249771, 
1215,1215,6th / San Pedro,,34.042015,-118.245071, 
1216,1216,6th / Towne,,34.041229,-118.24379, 
1217,1217,6th / Wall,,34.043457,-118.247337, 
1218,1218,7th / Decatur,,34.034859,-118.234856, 
1219,1219,7th / Gladys,,34.038776,-118.243797, 
1220,1220,7th / Maple,,34.042439,-118.249046, 
1221,1221,7th / Mateo,,34.034702,-118.232048, 
1222,1222,7th / Alameda,,34.035088,-118.238342, 
1223,1223,7th / Anderson,,34.034386,-118.223404, 
1225,1225,Del Amo / Lakewood,,33.846977,-118.142151, 
1226,1226,Pacific Coast Highway / Corral Canyon,,34.032944,-118.743301, 
1227,1227,Pacific Coast Highway/ Corral Canyon,,34.033169,-118.743507, 
1229,1229,7th / Main,,34.043884,-118.251099, 
1231,1231,7th / San Pedro,,34.040962,-118.246918, 
1232,1232,7th / Santa Fe,,34.034668,-118.230392, 
1233,1233,7th / Towne,,34.039558,-118.244911, 
1234,1234,Compton / 89th,,33.956013,-118.247223, 
1235,1235,8th / Euclid,,34.024475,-118.210945, 
1236,1236,8th / Marietta,,34.025887,-118.214691, 
1238,1238,8th / Concord,,34.022732,-118.207108, 
1239,1239,Hawthorne / Rosecrans,,33.901138,-118.352905, 
1240,1240,8th / Grande Vista,,34.023216,-118.208702, 
1241,1241,Lorena / 8th,,34.021744,-118.204895, 
1243,1243,8th / Spence,,34.020267,-118.202141, 
1244,1244,92nd / Compton,,33.953453,-118.247215, 
1245,1245,Graham / 92nd,,33.95306,-118.242935, 
1246,1246,9th / Maple,,34.039497,-118.252914, 
1247,1247,9th / Main,,34.041309,-118.254868, 
1248,1248,Broadway / 9th,,34.042629,-118.255592, 
1249,1249,Empire / Valpreda,,34.191906,-118.332863, 
1250,1250,9th / San Pedro,,34.037342,-118.250587, 
1251,1251,9th / Stanford,,34.035023,-118.248055, 
1252,1252,Adams / Compton,,34.015041,-118.247314, 
1253,1253,Adams / Griffith,,34.020092,-118.257706, 
1254,1254,Adams / Hooper,,34.016548,-118.249893, 
1255,1255,Adams / Maple,,34.023628,-118.265686, 
1256,1256,Adams / Central,,34.019001,-118.255241, 
1257,1257,Adams / Main,,34.024834,-118.268394, 
1258,1258,Adams / San Pedro,,34.02182,-118.261604, 
1260,1260,Adams / Trinity,,34.022469,-118.263069, 
1265,1265,Allen / Altadena,,34.190353,-118.112473, 
1266,1266,8th / Olive,,34.045418,-118.257072, 
1267,1267,Altadena / Lake,,34.190029,-118.133652, 
1270,1270,Marianna / Valley,,34.066448,-118.177704, 
1271,1271,Altadena / Orange Grove,,34.158558,-118.098312, 
1272,1272,Painter / Penn,,33.975159,-118.032547, 
1273,1273,Painter / Mar Vista,,33.973614,-118.032776, 
1274,1274,Altadena / Maiden,,34.190456,-118.12896, 
1275,1275,Altadena / Marengo,,34.192825,-118.14151, 
1276,1276,Altadena / Holliston,,34.190487,-118.123619, 
1277,1277,Altadena / Porter,,34.190811,-118.117645, 
1278,1278,Anaheim / Banning,,33.780113,-118.2575, 
1279,1279,Anaheim / McFarland,,33.780399,-118.252182, 
1280,1280,Arbor Vitae / Grevillea,,33.952599,-118.355133, 
1281,1281,Artesia / Butler,,33.87418,-118.196594, 
1282,1282,Atlantic / Pomona,,34.033211,-118.152611, 
1283,1283,Ocean / Wilshire,,34.016743,-118.500938, 
1284,1284,Avenue 43 / Mosher,,34.092964,-118.205605, 
1285,1285,Wilshire / Westwood,,34.058792,-118.44339, 
1286,1286,Broadway / Carr,,34.146015,-118.229683, 
1287,1287,Broadway / Sinclair,,34.14603,-118.232788, 
1288,1288,Broadway / Adams,,34.146111,-118.2416, 
1289,1289,Broadway / Cedar,,34.146137,-118.244095, 
1290,1290,Broadway / Chevy Chase,,34.146091,-118.239807, 
1291,1291,Broadway / Glendale,,34.14621,-118.246956, 
1292,1292,Broadway / Jackson,,34.146206,-118.249893, 
1293,1293,Broadway / Louise,,34.146179,-118.252403, 
1295,1295,Wilshire / La Cienega,,34.06496,-118.375771, 
1296,1296,Santa Monica / Canon,,34.072609,-118.402542, 
1297,1297,Santa Monica / Wilshire,,34.066879,-118.410866, 
1298,1298,Nebraska / Sepulveda,,34.045704,-118.443314, 
1301,1301,Cameron / Whitebirch,,34.059933,-117.874886, 
1302,1302,Cameron / La Serena,,34.059952,-117.87793, 
1303,1303,Carson / Juan,,33.831364,-118.075729, 
1304,1304,Carson / Pioneer,,33.831615,-118.081558, 
1305,1305,Carson / Seine,,33.831367,-118.078369, 
1306,1306,Century / Avalon,,33.945477,-118.265427, 
1307,1307,Century / Main,,33.945442,-118.273552, 
1308,1308,Century / San Pedro,,33.945457,-118.269196, 
1309,1309,Chevy Chase / Canyon,,34.15147,-118.234512, 
1310,1310,Chevy Chase / Glendale,,34.133396,-118.252197, 
1311,1311,Colorado / Bonnie,,34.14587,-118.115524, 
1314,1314,Colorado / Allen,,34.145885,-118.11335, 
1315,1315,Colorado / Altadena,,34.145973,-118.09845, 
1316,1316,Colorado / Arroyo Pkwy,,34.145668,-118.147339, 
1317,1317,Colorado / Berkeley,,34.145908,-118.109314, 
1318,1318,Colorado / Catalina,,34.145782,-118.129196, 
1319,1319,Colorado / Chester,,34.145813,-118.124352, 
1320,1320,Colorado / Craig,,34.145927,-118.105995, 
1321,1321,Colorado / Daisy,,34.146008,-118.092819, 
1322,1322,Colorado / El Molino,,34.145737,-118.136681, 
1323,1323,Colorado / Fair Oaks,,34.145645,-118.150215, 
1324,1324,Colorado / Garfield,,34.145691,-118.144028, 
1325,1325,Colorado / Hill,,34.145836,-118.121071, 
1326,1326,1st / Magnolia,,34.182129,-118.313194, 
1327,1327,Burbank / Victory Bl,,34.183628,-118.323929, 
1328,1328,Colorado / Hudson,,34.14576,-118.133659, 
1329,1329,Colorado / Kinneloa,,34.146057,-118.086739, 
1330,1330,San Fernando / Cerritos,,34.125088,-118.2565, 
1331,1331,Colorado / Lake,,34.145763,-118.132011, 
1332,1332,San Fernando / Central,,34.127102,-118.258026, 
1334,1334,Colorado / Madison,,34.145725,-118.138176, 
1335,1335,Colorado / Mentor,,34.145771,-118.130638, 
1336,1336,Colorado / Oak Knoll,,34.14576,-118.13501, 
1337,1337,Colorado / Oakland,,34.145718,-118.139534, 
1339,1339,Colorado / San Gabriel,,34.145996,-118.094345, 
1340,1340,Colorado / Sierra Bonita,,34.145863,-118.117233, 
1341,1341,Colorado / Sierra Madre,,34.145954,-118.101387, 
1342,1342,Colorado / Sunnyslope,,34.14603,-118.090248, 
1343,1343,Colorado / Wilson,,34.14579,-118.127831, 
1344,1344,Colorado / Northup,,34.146076,-118.08477, 
1345,1345,Colorado / Marengo,,34.145676,-118.145744, 
1346,1346,Saticoy / De Soto,,34.208424,-118.588821, 
1347,1347,Valley / Marianna,,34.066841,-118.17852, 
1348,1348,Colorado / Raymond,,34.14566,-118.148674, 
1349,1349,Valley / Marianna,,34.066986,-118.176826, 
1350,1350,Compton / Alameda,,33.89587,-118.219528, 
1351,1351,Compton / Bradfield,,33.895924,-118.203827, 
1352,1352,Compton / Holly,,33.895939,-118.201286, 
1353,1353,Compton / Long Beach,,33.895901,-118.207657, 
1354,1354,Compton / Mayo,,33.895893,-118.212318, 
1355,1355,Compton / Santa Fe,,33.895885,-118.215965, 
1356,1356,Compton / Sloan,,33.895901,-118.210602, 
1357,1357,Compton / Spring,,33.896137,-118.218361, 
1359,1359,Compton / Willow,,33.895882,-118.217278, 
1360,1360,Compton / Willowbrook,,33.895828,-118.223663, 
1361,1361,Compton / Aprilia,,33.895611,-118.256401, 
1362,1362,Compton / Atlantic,,33.89603,-118.193649, 
1363,1363,Compton / Central,,33.895699,-118.251495, 
1364,1364,Compton / Gibson,,33.896107,-118.189171, 
1365,1365,Compton / Harris,,33.895973,-118.198502, 
1367,1367,Compton / Stanford,,33.895218,-118.260567, 
1370,1370,Del Mar / Bonita,,34.142204,-118.104202, 
1371,1371,Del Mar / Allen,,34.142056,-118.113457, 
1372,1372,Del Mar / Altadena,,34.142216,-118.099037, 
1373,1373,Del Mar / Berkeley,,34.142075,-118.109802, 
1374,1374,Del Mar / Bonnie,,34.142036,-118.115929, 
1375,1375,Del Mar / Chester,,34.141052,-118.124855, 
1376,1376,Del Mar / Craig,,34.142166,-118.106003, 
1377,1377,Del Mar / Eastern,,34.142246,-118.092079, 
1378,1378,Del Mar / El Molino,,34.140491,-118.137184, 
1379,1379,Del Mar / El Nido,,34.142262,-118.089668, 
1380,1380,Del Mar / Hill,,34.141846,-118.121628, 
1381,1381,Del Mar / Hudson,,34.140488,-118.134163, 
1382,1382,Del Mar / Kinneloa,,34.142284,-118.085365, 
1383,1383,Del Mar / Lake,,34.140686,-118.132675, 
1384,1384,Del Mar / Mentor,,34.140999,-118.130646, 
1385,1385,Del Mar / San Gabriel,,34.142231,-118.094955, 
1386,1386,Del Mar / Sierra Bonita,,34.142021,-118.117546, 
1387,1387,Del Mar / Sierra Madre,,34.142208,-118.101974, 
1388,1388,Del Mar / Wilson,,34.14101,-118.127831, 
1389,1389,Duarte / 1st,,34.129791,-118.028275, 
1390,1390,Duarte / 2nd,,34.130253,-118.025162, 
1391,1391,Duarte / California,,34.132095,-117.995201, 
1392,1392,Duarte / Myrtle,,34.132034,-118.000984, 
1393,1393,Duarte / Santa Anita,,34.129421,-118.030884, 
1394,1394,Duarte / Shamrock,,34.132133,-117.990364, 
1404,1404,El Segundo / Main,,33.91629,-118.274162, 
1407,1407,Telstar / Flair,,34.06852,-118.070175, 
1409,1409,Florence / Avalon,,33.974613,-118.264847, 
1410,1410,Florence Station,,33.974606,-118.242493, 
1411,1411,Florence / Centinela,,33.969559,-118.347321, 
1412,1412,Florence / Compton,,33.974617,-118.247932, 
1413,1413,Florence / Redondo,,33.973396,-118.33931, 
1415,1415,Florence / Holmes,,33.974602,-118.241516, 
1416,1416,Florence / Hooper,,33.974625,-118.251663, 
1417,1417,Florence / Malabar,,33.974571,-118.227547, 
1418,1418,Florence / Malabar,,33.974319,-118.227585, 
1420,1420,Florence / Miramonte,,33.974613,-118.245689, 
1421,1421,Florence / Mountain View,,33.973518,-118.217316, 
1422,1422,Florence / Hillcrest,,33.968628,-118.349098, 
1423,1423,Florence / Market,,33.966213,-118.351768, 
1424,1424,Florence / Prairie,,33.971222,-118.343834, 
1425,1425,Pacific / Florence,,33.973965,-118.225403, 
1426,1426,George Burns / Gracie Allen,,34.07515,-118.381531, 
1427,1427,San Vicente / Beverly,,34.076038,-118.379433, 
1429,1429,Florence / Roseberry,,33.974594,-118.23259, 
1431,1431,Florence / Main,,33.974564,-118.2742, 
1432,1432,Florence / San Pedro,,33.974594,-118.269234, 
1433,1433,Florence / Santa Fe,,33.974594,-118.230515, 
1435,1435,Valley / El Monte,,34.075649,-118.037086, 
1436,1436,Valley / El Monte,,34.075989,-118.037285, 
1437,1437,Florence / West,,33.974365,-118.334976, 
1441,1441,Foothill / Rosemead,,34.150307,-118.073715, 
1442,1442,Foothill / Rosemead,,34.150116,-118.073051, 
1443,1443,Santa Monica / Sanborn,,34.09243,-118.280785, 
1444,1444,Gage / Avalon,,33.981831,-118.264854, 
1445,1445,Gage / Compton,,33.981972,-118.247932, 
1446,1446,Gage / Emil,,33.972969,-118.140846, 
1447,1447,Gage / Garfield,,33.973637,-118.146568, 
1448,1448,Gage / Hooper,,33.981995,-118.251732, 
1449,1449,Gage / McKinley,,33.981834,-118.261559, 
1450,1450,Gage / Central,,33.981888,-118.256645, 
1451,1451,Montana / Liberty Layover,,34.080109,-118.260918, 
1453,1453,Gage / San Pedro,,33.982338,-118.269714, 
1454,1454,Gage / Wilmington,,33.981903,-118.239189, 
1455,1455,Garvey / Central,,34.062611,-118.047157, 
1456,1456,Garvey / Lashbrook,,34.06258,-118.063156, 
1457,1457,Garvey / Merced,,34.062592,-118.051552, 
1458,1458,Garvey / Alhambra,,34.062386,-118.1166, 
1459,1459,Garvey / Florence,,34.062431,-118.11068, 
1460,1460,Garvey / Lincoln,,34.062382,-118.120903, 
1461,1461,Garvey / New,,34.06245,-118.108307, 
1462,1462,Garvey / Rural,,34.062405,-118.114143, 
1463,1463,Garvey / Nicholson,,34.062382,-118.118668, 
1464,1464,Garvey / Potrero,,34.062592,-118.055862, 
1465,1465,Garvey / Rosemead,,34.062569,-118.065071, 
1471,1471,1st / Harbor,,33.743355,-118.279968, 
1472,1472,Harbor / 1st,,33.743011,-118.279793, 
1478,1478,Sepulveda / Grand,,33.919739,-118.395958, 
1480,1480,1st / Pacific,,33.743217,-118.288055, 
1481,1481,Greenleaf / Alameda,,33.881359,-118.217354, 
1482,1482,Greenleaf / Mayo,,33.881367,-118.212425, 
1484,1484,Greenleaf / Tamarind,,33.881306,-118.221359, 
1492,1492,Huntington / 1st,,34.139954,-118.028099, 
1493,1493,Huntington / Santa Anita,,34.139919,-118.031151, 
1494,1494,Hyde Park / Marlborough,,33.976486,-118.346428, 
1495,1495,Hyde Park / Gay,,33.979057,-118.340462, 
1496,1496,Hyde Park / Long,,33.980103,-118.33802, 
1497,1497,Hyde Park / Park,,33.977329,-118.34446, 
1498,1498,Hyde Park / Centinela,,33.975857,-118.352341, 
1503,1503,Imperial / Avalon,,33.931179,-118.265495, 
1504,1504,Aviation / Imperial,,33.930637,-118.378639, 
1505,1505,Imperial / Compton,,33.929344,-118.246422, 
1508,1508,Imperial / Main,,33.930893,-118.273659, 
1509,1509,San Pedro / Imperial,,33.931332,-118.269684, 
1510,1510,Imperial / Stanford,,33.930904,-118.261818, 
1513,1513,Jefferson / Griffith,,34.013866,-118.262115, 
1514,1514,Jefferson / Main,,34.018623,-118.272911, 
1515,1515,Jefferson / San Pedro,,34.015289,-118.265572, 
1516,1516,Jefferson / Trinity,,34.016155,-118.267464, 
1520,1520,La Brea / Market,,33.957329,-118.352432, 
1529,1529,Las Tunas / Country Club,,34.103065,-118.096054, 
1530,1530,Las Tunas / Burton,,34.103321,-118.081451, 
1531,1531,Las Tunas / California,,34.103252,-118.093628, 
1532,1532,Las Tunas / Charlotte,,34.103279,-118.08873, 
1533,1533,Las Tunas / Del Mar,,34.102646,-118.099815, 
1534,1534,Las Tunas / Muscatel,,34.10334,-118.0774, 
1535,1535,Las Tunas / San Gabriel,,34.103264,-118.091248, 
1536,1536,Las Tunas / Willard,,34.103321,-118.08519, 
1540,1540,Live Oak / 10th,,34.109833,-118.012306, 
1541,1541,Live Oak / Center,,34.109463,-118.015015, 
1542,1542,Myrtle / Live Oak,,34.111275,-118.004379, 
1544,1544,Magnolia / San Fernando,,34.182823,-118.311729, 
1545,1545,Main / Almansor,,34.097874,-118.120781, 
1546,1546,Main / Chapel,,34.096615,-118.123436, 
1547,1547,Main / Cordova,,34.098907,-118.118599, 
1548,1548,Main / Garfield,,34.095165,-118.126503, 
1549,1549,Main / Stoneman,,34.095741,-118.125267, 
1550,1550,Main / Valencia,,34.09993,-118.116447, 
1551,1551,Main / Vega,,34.1008,-118.114632, 
1552,1552,Manchester / Avalon,,33.960262,-118.265442, 
1553,1553,Manchester / McKinley,,33.960022,-118.261192, 
1554,1554,Manchester / Central,,33.960293,-118.257057, 
1555,1555,Manchester / Main,,33.959969,-118.274109, 
1556,1556,San Pedro / Manchester,,33.959839,-118.269661, 
1557,1557,Manchester / Hastings,,33.9599,-118.428818, 
1558,1558,Manchester / Grevillea,,33.961624,-118.354797, 
1559,1559,Manchester / Hillcrest,,33.961662,-118.349091, 
1561,1561,Manchester / Pershing,,33.956581,-118.442268, 
1562,1562,Manchester / Market,,33.961914,-118.351768, 
1563,1563,Manchester / Market,,33.961658,-118.351624, 
1564,1564,Manchester / Tamarack,,33.959988,-118.346588, 
1565,1565,Mariposa / El Molino,,34.188301,-118.132889, 
1566,1566,Mariposa / Santa Anita,,34.190212,-118.138809, 
1568,1568,Mariposa / Saint James,,34.189964,-118.138046, 
1569,1569,Mission / Del Mar,,34.093834,-118.099205, 
1570,1570,Mission / Lafayette,,34.092453,-118.095329, 
1571,1571,Mission / San Gabriel,,34.090721,-118.090561, 
1573,1573,Olive / Glenoaks,,34.183064,-118.306557, 
1574,1574,Olive / San Fernando,,34.180717,-118.309036, 
1575,1575,Olympic / 8th,,34.01894,-118.198196, 
1576,1576,Olympic / Camulos,,34.022392,-118.21582, 
1577,1577,Olympic / Southside,,34.01339,-118.144478, 
1578,1578,Olympic / Fraser,,34.017124,-118.163139, 
1579,1579,Olympic / Goodrich,,34.015575,-118.155777, 
1580,1580,Olympic / Hooper,,34.029434,-118.24131, 
1581,1581,Olympic / Lawrence,,34.026932,-118.237122, 
1582,1582,Olympic / Los Palos,,34.018707,-118.195671, 
1583,1583,Olympic / Mateo,,34.02589,-118.232407, 
1584,1584,Olympic / Calada,,34.018688,-118.198174, 
1585,1585,Olympic / Orme,,34.023312,-118.217941, 
1586,1586,Olympic / Alameda,,34.027607,-118.239296, 
1587,1587,Olympic / Arizona,,34.018158,-118.168045, 
1589,1589,Olympic / Atlantic,,34.016106,-118.158333, 
1591,1591,Olympic / Dacotah,,34.020893,-118.212494, 
1592,1592,Olympic / Ditman,,34.018738,-118.18898, 
1593,1593,Olympic / Downey,,34.018768,-118.179802, 
1594,1594,Olympic / Eastern,,34.018772,-118.17366, 
1595,1595,Olympic / Fetterly,,34.017643,-118.165588, 
1596,1596,Olympic / Ford,,34.018784,-118.172531, 
1597,1597,Olympic / Garfield,,34.011379,-118.131104, 
1598,1598,Olympic / Gerhart,,34.013809,-118.147293, 
1599,1599,Olympic / Grande Vista,,34.019871,-118.210213, 
1600,1600,Olympic / Hendricks,,34.012894,-118.141212, 
1601,1601,Olympic / Herbert,,34.018757,-118.183479, 
1602,1602,Olympic / Indiana,,34.018726,-118.192017, 
1603,1603,Lorena / Olympic,,34.018993,-118.206299, 
1604,1604,Main / Olympic,,34.040386,-118.257065, 
1606,1606,Olympic / Augusta,,34.019024,-118.176735, 
1607,1607,Olympic / McBride,,34.018654,-118.170433, 
1608,1608,Olympic / Rowan,,34.018749,-118.186974, 
1609,1609,Olympic / Santa Fe,,34.025475,-118.229683, 
1610,1610,Olympic / Soto,,34.024017,-118.219574, 
1611,1611,Olympic / Boyle,,34.024769,-118.221313, 
1613,1613,Olympic / Vancouver,,34.016705,-118.161179, 
1614,1614,Olympic / Spence,,34.018658,-118.202988, 
1616,1616,Orange Grove / Sunnyslope,,34.158356,-118.08947, 
1617,1617,Orange Grove / Sierra Madre,,34.158245,-118.094444, 
1618,1618,Orange Grove / Sierra Madre Villa,,34.157749,-118.081779, 
1619,1619,Regent / Grevillea,,33.964504,-118.355026, 
1620,1620,Riggin / Garfield,,34.036827,-118.130844, 
1621,1621,Pacific / 13th,,33.732533,-118.288101, 
1622,1622,Rosecrans / Avalon,,33.902218,-118.265617, 
1625,1625,Rosecrans / San Pedro,,33.902084,-118.26931, 
1626,1626,San Bernardino / Lark Ellen,,34.088306,-117.916313, 
1627,1627,San Bernardino / Rimsdale,,34.088657,-117.910942, 
1628,1628,Sierra Madre / Hastings Ranch,,34.161446,-118.072403, 
1630,1630,Sierra Madre / Canon,,34.162029,-118.045227, 
1631,1631,Sierra Madre / Mountain Trail,,34.16201,-118.047981, 
1632,1632,Sierra Madre / Sierra Madre Villa,,34.161335,-118.081314, 
1633,1633,Sierra Madre / Rancho,,34.16206,-118.040924, 
1634,1634,Sierra Madre / Riviera,,34.161377,-118.078453, 
1635,1635,Slauson / Alamo,,33.986149,-118.174507, 
1636,1636,Slauson / Alcoa,,33.989048,-118.208099, 
1637,1637,Slauson / Avalon,,33.989117,-118.265419, 
1638,1638,Slauson / Boxford,,33.984581,-118.151237, 
1639,1639,Slauson / Compton,,33.989201,-118.247414, 
1640,1640,Slauson / Garfield,,33.982273,-118.141846, 
1641,1641,Slauson / Hooper,,33.989197,-118.252342, 
1642,1642,Slauson / Long Beach,,33.989147,-118.243629, 
1643,1643,Slauson / Malt,,33.983463,-118.145584, 
1644,1644,Slauson / McKinley,,33.989162,-118.261002, 
1645,1645,Slauson / Regent,,33.989082,-118.234985, 
1646,1646,Slauson / Central,,33.989185,-118.256683, 
1647,1647,Slauson / Eastern,,33.985729,-118.162323, 
1648,1648,Slauson / San Pedro,,33.989109,-118.270271, 
1649,1649,Slauson / Santa Fe,,33.989086,-118.230515, 
1650,1650,Slauson / Telegraph,,33.975128,-118.123299, 
1651,1651,Slauson / Towne,,33.989105,-118.267715, 
1652,1652,Slauson / Zambrano,,33.984898,-118.154205, 
1653,1653,Los Angeles / 1st,,34.051697,-118.242332, 
1656,1656,Valley / Bourdet,,34.007019,-117.863411, 
1657,1657,Valley / Brea Canyon,,34.020245,-117.839912, 
1658,1658,Valley / Camino De Gloria,,34.004002,-117.868973, 
1660,1660,Valley / Covina,,34.050259,-117.997887, 
1661,1661,Valley / Ferrero,,34.011086,-117.938087, 
1662,1662,Valley / Morganfield,,34.002029,-117.875008, 
1663,1663,Valley / Orange Blossom,,34.04829,-117.994736, 
1664,1664,Valley / Pierre,,34.015778,-117.849365, 
1665,1665,Valley / Almansor,,34.078773,-118.116577, 
1666,1666,Valley / Chapel,,34.078621,-118.1194, 
1667,1667,Valley / Del Mar,,34.079624,-118.099213, 
1669,1669,Valley / Garfield,,34.078449,-118.122673, 
1670,1670,Valley / Granada,,34.078922,-118.113754, 
1671,1671,Valley / Nogales,,34.002815,-117.88736, 
1672,1672,Valley / San Angelo,,34.051556,-117.999954, 
1673,1673,Valley / San Gabriel,,34.080048,-118.090416, 
1674,1674,Valley / Sentous,,34.001804,-117.880798, 
1675,1675,Valley / Vega,,34.07906,-118.11097, 
1676,1676,Valley / Somerset,,34.02314,-117.837837, 
1677,1677,Valley / Suzanne,,34.017483,-117.846497, 
1678,1678,Valley / Vineland,,34.04734,-117.993225, 
1679,1679,Valley / Walnut,,34.079838,-118.094833, 
1680,1680,Valley / Wickford,,34.010063,-117.932167, 
1681,1681,Valley / Workman Mill,,34.044468,-117.988914, 
1682,1682,Verdugo / 1st,,34.17728,-118.307228, 
1683,1683,Vernon / Ascot,,34.003757,-118.249626, 
1684,1684,Vernon / Compton,,34.003765,-118.247978, 
1685,1685,Vernon / Hooper,,34.003765,-118.251793, 
1687,1687,Vernon / Long Beach,,34.003784,-118.243584, 
1688,1688,Vernon / McKinley,,34.003773,-118.261032, 
1689,1689,Vernon / Morgan,,34.003784,-118.245522, 
1690,1690,Vernon / Alameda,,34.003799,-118.238594, 
1691,1691,Vernon / Avalon,,34.003754,-118.265465, 
1692,1692,Vernon / Central,,34.00378,-118.256721, 
1693,1693,Vernon / Main,,34.003704,-118.274216, 
1694,1694,Vernon / San Pedro,,34.003731,-118.269814, 
1696,1696,Soto / Vernon,,34.005661,-118.21981, 
1697,1697,Vernon / Saint Charles,,34.003815,-118.234589, 
1698,1698,Vernon / San Pedro Pl,,34.003971,-118.272339, 
1699,1699,Vernon / Towne,,34.003746,-118.267326, 
1700,1700,Vernon / Wall,,34.003716,-118.27137, 
1701,1701,Victoria / Avalon,,33.867104,-118.266479, 
1702,1702,Victoria / RR-Xing,,33.865009,-118.211189, 
1703,1703,Victoria / Tamcliff,,33.867115,-118.257187, 
1705,1705,Walnut / Fair Oaks,,34.149757,-118.150871, 
1706,1706,Walnut / Garfield,,34.149601,-118.144981, 
1707,1707,Walnut / Los Robles,,34.149624,-118.141777, 
1708,1708,Walnut / Marengo,,34.149605,-118.146324, 
1709,1709,Walnut / Raymond,,34.14959,-118.149254, 
1710,1710,Washington / Bresee,,34.168976,-118.119286, 
1711,1711,Washington / Coolidge,,34.169014,-118.100777, 
1716,1716,Washington / Martelo,,34.169014,-118.103035, 
1717,1717,Washington / Allen,,34.169033,-118.112709, 
1718,1718,Washington / Catalina,,34.168892,-118.129295, 
1719,1719,Washington / Chester,,34.168938,-118.124161, 
1720,1720,Washington / El Molino,,34.168839,-118.136772, 
1721,1721,Washington / Hill,,34.16898,-118.121727, 
1722,1722,Washington / Lake,,34.168869,-118.131935, 
1723,1723,Washington / Los Robles,,34.168797,-118.141296, 
1724,1724,Washington / Mar Vista,,34.168915,-118.126587, 
1725,1725,Washington / Marengo,,34.168758,-118.145828, 
1726,1726,Washington / Pepper,,34.169025,-118.10817, 
1733,1733,Washington / Sinaloa,,34.169014,-118.115128, 
1735,1735,Woodbury / Santa Anita,,34.181881,-118.142609, 
1736,1736,Eagle Rock / York,,34.123943,-118.221275, 
1737,1737,Eagle Rock / York,,34.123905,-118.220863, 
1739,1739,Eagle Rock / Colorado,,34.138874,-118.214317, 
1740,1740,Eagle Rock / El Paso,,34.122223,-118.224045, 
1742,1742,Eagle Rock / Merton,,34.137558,-118.214386, 
1743,1743,Eagle Rock / Moss,,34.110538,-118.237061, 
1744,1744,Eagle Rock / Avenue 45,,34.125858,-118.219055, 
1745,1745,Eagle Rock / Norwalk,,34.132214,-118.215981, 
1746,1746,Eagle Rock / Verdugo,,34.104927,-118.237976, 
1747,1747,Eagle Rock / Avenue 31,,34.10799,-118.238045, 
1748,1748,Eagle Rock / Avenue 33,,34.112007,-118.236679, 
1749,1749,Eagle Rock / Avenue 34,,34.113796,-118.236206, 
1750,1750,Eagle Rock / Avenue 35,,34.115799,-118.23555, 
1751,1751,Eagle Rock / Avenue 36,,34.117172,-118.234337, 
1752,1752,Eagle Rock / Avenue 40,,34.119881,-118.228981, 
1753,1753,Eagle Rock / Avenue 41,,34.120766,-118.227119, 
1754,1754,Eagle Rock / Westdale,,34.129318,-118.216843, 
1757,1757,Eagle Rock / Yosemite,,34.135258,-118.215073, 
1758,1758,Eastern / Navarro,,34.085075,-118.17794, 
1759,1759,Eastern / Cecilia,,33.957108,-118.164207, 
1760,1760,Eastern / Clara,,33.962975,-118.165237, 
1761,1761,Eastern / Florence,,33.967648,-118.164604, 
1762,1762,Eastern / Gage,,33.975677,-118.163506, 
1763,1763,Eastern / Garfield,,33.953972,-118.163666, 
1764,1764,Eastern / Jaboneria,,33.959805,-118.165215, 
1765,1765,Eastern / Live Oak,,33.965916,-118.164841, 
1766,1766,Eastern / Lubec,,33.971401,-118.164101, 
1779,1779,Echo Park / Sunset,,34.077068,-118.257301, 
1788,1788,El Segundo / Cerise,,33.916321,-118.332092, 
1789,1789,El Segundo / Chadron,,33.916325,-118.329262, 
1791,1791,Wilshire / Western,,34.061573,-118.308586, 
1798,1798,Yukon / El Segundo,,33.916252,-118.335045, 
1802,1802,Eldridge / Terra Bella,,34.281322,-118.38475, 
1804,1804,Peck / Elliott,,34.058823,-118.030388, 
1805,1805,Tyler / Elliott,,34.058727,-118.035461, 
1814,1814,4209 Empire,,34.193909,-118.358063, 
1815,1815,Empire / Burbank Airport,,34.193447,-118.354424, 
1816,1816,Empire / Lincoln,,34.191727,-118.335968, 
1817,1817,Empire / Buena Vista,,34.191952,-118.337837, 
1820,1820,Empire / Niagara,,34.192017,-118.342186, 
1821,1821,Empire / Ontario,,34.192047,-118.344398, 
1822,1822,Empire / Wilson,,34.1917,-118.331055, 
1829,1829,Evergreen / Cesar E Chavez,,34.043739,-118.20015, 
1830,1830,Exposition / University,,34.018002,-118.285782, 
1831,1831,Exposition / Denker,,34.01807,-118.304703, 
1832,1832,Exposition / Halldale,,34.018066,-118.302666, 
1833,1833,Exposition / Raymond,,34.018055,-118.297546, 
1834,1834,Exposition / Budlong,,34.018047,-118.296021, 
1835,1835,Branford / Glenoaks,,34.255505,-118.393105, 
1836,1836,Exposition / Harvard,,34.018074,-118.306396, 
1837,1837,Exposition / Normandie,,34.018055,-118.299858, 
1838,1838,Exposition / Vermont,,34.018467,-118.291878, 
1839,1839,Exposition / Western,,34.018112,-118.308578, 
1840,1840,Ventura / Goodland,,34.144958,-118.411987, 
1841,1841,Exposition / Vermont,,34.018024,-118.291222, 
1842,1842,Branford / Glenoaks,,34.25552,-118.393341, 
1843,1843,Fair Oaks / Claremont,,34.167236,-118.150513, 
1844,1844,Fair Oaks / Glenarm,,34.127792,-118.150154, 
1845,1845,Fair Oaks / La Venezia,,34.188705,-118.14991, 
1846,1846,Fair Oaks / Wapello,,34.202862,-118.143402, 
1847,1847,Fair Oaks / Marathon,,34.200527,-118.14447, 
1848,1848,Fair Oaks / Painter,,34.15992,-118.150452, 
1849,1849,Fair Oaks / Penn,,34.174786,-118.150581, 
1850,1850,Glenarm / Fair Oaks,,34.127441,-118.149979, 
1851,1851,Fair Oaks / Washington,,34.169109,-118.150528, 
1853,1853,Fair Oaks / Monterey,,34.112026,-118.150146, 
1855,1855,Fair Oaks / Rollin,,34.109001,-118.150169, 
1856,1856,Fair Oaks / Spruce,,34.105679,-118.15023, 
1858,1858,Fairfax / Adams,,34.032623,-118.370842, 
1859,1859,Fairfax / Willoughby,,34.087502,-118.361305, 
1861,1861,Fallbrook / Burbank,,34.171795,-118.623177, 
1862,1862,Fallbrook / Criswell,,34.19051,-118.62323, 
1863,1863,Fallbrook / Erwin,,34.183079,-118.623215, 
1864,1864,Fallbrook / Hatteras,,34.175705,-118.623192, 
1865,1865,Fallbrook / Ingomar,,34.211739,-118.623291, 
1867,1867,Fallbrook / Marlin Pl,,34.19714,-118.623253, 
1868,1868,Fallbrook / Oxnard,,34.179462,-118.623199, 
1869,1869,Fallbrook / Roscoe,,34.219246,-118.623337, 
1870,1870,Fallbrook / Runnymede,,34.20528,-118.623276, 
1871,1871,Fallbrook / Saticoy,,34.208641,-118.623283, 
1872,1872,Fallbrook / Sherman Way,,34.20126,-118.62326, 
1873,1873,Fallbrook / Strathern,,34.215767,-118.623306, 
1874,1874,Fallbrook / Vanowen,,34.193993,-118.62323, 
1875,1875,Fallbrook / Ventura,,34.166821,-118.623154, 
1876,1876,Fallbrook / Victory,,34.186707,-118.623222, 
1877,1877,Fernhill / Cliffside,,34.007568,-118.80085, 
1878,1878,Fernhill / Grayfox,,34.013157,-118.800339, 
1879,1879,Coldwater Canyon / Erwin,,34.183342,-118.413635, 
1880,1880,Figueroa / USC  - McCarthy Way,,34.020485,-118.280716, 
1881,1881,Figueroa / Arroyo Glen,,34.113422,-118.186234, 
1883,1883,Figueroa / Martin Luther King Jr,,34.010941,-118.282593, 
1884,1884,Brand / Lexington,,34.152012,-118.254883, 
1886,1886,Exposition / Figueroa,,34.018459,-118.282593, 
1887,1887,Figueroa / Harbor Green Line Station,,33.92865,-118.282753, 
1888,1888,Venice / Flower,,34.036972,-118.269073, 
1890,1890,Firestone / Patton,,33.937073,-118.127441, 
1891,1891,Firestone / Ryerson,,33.94759,-118.154655, 
1892,1892,Firestone / Stonewood Center,,33.9338,-118.12072, 
1893,1893,Firestone / Annetta,,33.952274,-118.188133, 
1896,1896,Firestone / Atlantic,,33.95179,-118.183311, 
1899,1899,Firestone / California,,33.954361,-118.206383, 
1901,1901,Firestone / Compton,,33.960014,-118.247017, 
1903,1903,Firestone / Downey,,33.940353,-118.133354, 
1904,1904,Firestone / Elizabeth,,33.954609,-118.208817, 
1905,1905,Firestone / Garden View,,33.955055,-118.215912, 
1906,1906,Firestone / Garfield,,33.948978,-118.164841, 
1907,1907,Firestone Blue Line Station,,33.960018,-118.243248, 
1908,1908,Firestone / Holmes,,33.960014,-118.240982, 
1909,1909,Firestone / Hooper,,33.960037,-118.254196, 
1910,1910,Firestone / Hoxie,,33.923874,-118.102928, 
1911,1911,Firestone / Ivy,,33.960014,-118.234123, 
1912,1912,Firestone / Lakewood,,33.935822,-118.124176, 
1913,1913,Lakewood / Firestone,,33.935787,-118.123695, 
1915,1915,Firestone / Long Beach,,33.955452,-118.219887, 
1916,1916,Crenshaw / Martin Luther King Jr,,34.011143,-118.335266, 
1917,1917,Maie / Firestone,,33.959873,-118.244263, 
1919,1919,Firestone / Old River School,,33.947182,-118.148537, 
1920,1920,Firestone / Otis,,33.953079,-118.196159, 
1921,1921,Firestone / Pangborn,,33.9305,-118.11409, 
1922,1922,Firestone / Paramount,,33.942455,-118.137764, 
1923,1923,Firestone / Rayo,,33.95031,-118.175262, 
1924,1924,Firestone / Rheem,,33.952812,-118.193558, 
1925,1925,Firestone / Rives,,33.944885,-118.142311, 
1926,1926,Firestone / Brookshire,,33.938004,-118.129402, 
1927,1927,Firestone / Alameda,,33.957729,-118.231339, 
1928,1928,Firestone / Central,,33.960041,-118.256073, 
1929,1929,Firestone / Fir,,33.960007,-118.237556, 
1930,1930,Firestone / San Juan,,33.953575,-118.201096, 
1931,1931,Firestone / Santa Fe,,33.95602,-118.225006, 
1932,1932,Firestone / State,,33.954941,-118.211906, 
1933,1933,Firestone / Stewart And Gray,,33.929485,-118.112106, 
1934,1934,Firestone / Wiley Burke,,33.946598,-118.145454, 
1935,1935,Firestone / Woodruff,,33.932453,-118.118011, 
1936,1936,Firestone / Zamora,,33.96003,-118.251556, 
1940,1940,Manchester / Sepulveda Westway,,33.959724,-118.397377, 
1943,1943,Flair / Fletcher,,34.071964,-118.059952, 
1944,1944,Fletcher / Telstar,,34.06958,-118.060104, 
1946,1946,Fletcher / Ripple,,34.107555,-118.254471, 
1955,1955,Florence / Bell,,33.974594,-118.23835, 
1956,1956,Florence / California,,33.971836,-118.203697, 
1957,1957,Florence / McKinley,,33.974625,-118.261673, 
1958,1958,Florence / Old River School,,33.958565,-118.140297, 
1960,1960,Florence / Western,,33.952415,-118.128006, 
1961,1961,Florence / Woodruff,,33.944061,-118.11071, 
1962,1962,Florence / Atlantic,,33.970119,-118.187607, 
1963,1963,Florence / Bear,,33.971287,-118.198639, 
1964,1964,Florence / Birchdale,,33.948364,-118.119186, 
1965,1965,Florence / Bissell,,33.972019,-118.20549, 
1966,1966,Florence / Brookshire,,33.949825,-118.122124, 
1967,1967,Florence / Casanes,,33.942204,-118.107025, 
1968,1968,Florence / Downey,,33.951374,-118.125954, 
1969,1969,Florence / Eastern,,33.967682,-118.164413, 
1970,1970,Florence / El Selinda,,33.967251,-118.160316, 
1971,1971,Florence / Emil,,33.962864,-118.147995, 
1974,1974,Florence / Gard,,33.935173,-118.088539, 
1975,1975,Florence / Garfield Layover,,33.966351,-118.151711, 
1976,1976,Florence / Garfield,,33.965488,-118.151955, 
1977,1977,Florence / Haledon,,33.945415,-118.113373, 
1978,1978,Florence / Jaboneria,,33.967045,-118.157974, 
1979,1979,Florence / Lakewood,,33.947231,-118.116943, 
1980,1980,Florence / Mission,,33.972973,-118.212181, 
1982,1982,Florence / Newville,,33.940941,-118.104538, 
1984,1984,Florence / Otis,,33.97081,-118.194016, 
1985,1985,Florence / Paramount,,33.953316,-118.129807, 
1986,1986,Florence / Pioneer,,33.935165,-118.081505, 
1987,1987,Florence / Ringwood,,33.935158,-118.084724, 
1988,1988,Florence / Rives,,33.955433,-118.134056, 
1989,1989,Florence / Salt Lake,,33.971676,-118.202301, 
1990,1990,Florence / Scout,,33.961338,-118.145401, 
1991,1991,Florence / State,,33.972401,-118.209213, 
1992,1992,Studebaker / Florence,,33.936947,-118.096977, 
1993,1993,Florence / Walker,,33.968708,-118.174248, 
1995,1995,Florence / Wilcox,,33.969116,-118.178108, 
1996,1996,Florence / Wiley Burke,,33.956966,-118.137108, 
1998,1998,Florence / Vinevale,,33.969513,-118.181755, 
1999,1999,Florence / Perry,,33.966145,-118.147881, 
2000,2000,Cesar E Chavez / Grand,,34.060616,-118.244095, 
2002,2002,Foothill / Osborne,,34.273792,-118.393959, 
2003,2003,Foothill / Apperson,,34.256271,-118.299568, 
2004,2004,Foothill / Arroyo,,34.292747,-118.414215, 
2005,2005,Foothill / Astoria,,34.312553,-118.437134, 
2006,2006,Foothill / Boston,,34.237717,-118.261528, 
2007,2007,Foothill / Brainard,,34.274361,-118.363663, 
2008,2008,Foothill / Christy,,34.274231,-118.358604, 
2009,2009,Foothill / Clybourn,,34.274654,-118.373634, 
2010,2010,Foothill / Cobalt,,34.323017,-118.451782, 
2011,2011,Foothill / Commerce,,34.248646,-118.288383, 
2012,2012,Foothill / Conover,,34.272968,-118.338783, 
2013,2013,Foothill / Dronfield,,34.32291,-118.455643, 
2014,2014,Foothill / Dunsmore,,34.235252,-118.257568, 
2015,2015,Foothill / Esko,,34.272621,-118.348015, 
2016,2016,San Fernando / Brand,,34.123508,-118.254875, 
2018,2018,Foothill / Fenwick,,34.261196,-118.324989, 
2019,2019,Foothill / Filmore,,34.284126,-118.405083, 
2020,2020,Foothill / Glenwood,,34.225529,-118.241898, 
2021,2021,Foothill / Haines Canyon,,34.24762,-118.279228, 
2022,2022,Foothill / Harding,,34.301201,-118.423195, 
2023,2023,Foothill / Hillhaven,,34.249962,-118.290642, 
2024,2024,Foothill / Hillrose,,34.262657,-118.327942, 
2025,2025,Foothill / Home Depot,,34.295902,-118.417572, 
2026,2026,Foothill / Hubbard,,34.307434,-118.430061, 
2027,2027,Foothill / Whitegate,,34.259506,-118.304535, 
2028,2028,Foothill / Lauderdale,,34.236614,-118.259758, 
2029,2029,Foothill / Lowell,,34.240414,-118.265869, 
2030,2030,Foothill / Maclay,,34.298454,-118.420296, 
2031,2031,Foothill / Marcus,,34.247894,-118.281624, 
2032,2032,Foothill / Marnice,,34.245602,-118.274231, 
2033,2033,Foothill / McVine,,34.259792,-118.311241, 
2034,2034,Foothill / McVine,,34.259544,-118.311569, 
2035,2035,Summitrose / Tinker,,34.259529,-118.301857, 
2036,2036,Foothill / Mt Gleason,,34.259098,-118.302483, 
2037,2037,Foothill / Mountair,,34.251358,-118.292969, 
2038,2038,Foothill / New York,,34.232544,-118.253204, 
2039,2039,Foothill / Orcas,,34.274616,-118.368103, 
2040,2040,Foothill / Oro Vista,,34.259571,-118.315926, 
2041,2041,Sherman Grove / Foothill,,34.259995,-118.320053, 
2042,2042,Foothill / Osborne,,34.275883,-118.377998, 
2043,2043,Foothill / Pali,,34.243156,-118.270287, 
2044,2044,Foothill / Paxton,,34.287102,-118.408249, 
2045,2045,Foothill / Pennsylvania,,34.229832,-118.248848, 
2046,2046,Foothill / Pierce,,34.277565,-118.39856, 
2047,2047,Foothill / Pinewood,,34.248138,-118.285728, 
2048,2048,Foothill / Plainview,,34.254871,-118.298096, 
2049,2049,Foothill / Polk,,34.315544,-118.440552, 
2050,2050,Foothill / Ramsdell,,34.226574,-118.244118, 
2051,2051,Fenwick / Sable,,34.261471,-118.323425, 
2052,2052,Foothill / Riderwood,,34.264183,-118.331039, 
2053,2053,Foothill / Roxford,,34.322227,-118.459854, 
2055,2055,Foothill / Saluda,,34.241776,-118.268059, 
2056,2056,Foothill / Sayre,,34.310421,-118.433922, 
2057,2057,Foothill / Sunland,,34.259983,-118.32254, 
2058,2058,Sunland / Foothill,,34.259609,-118.322502, 
2059,2059,Foothill / Osborne,,34.273544,-118.394058, 
2060,2060,Foothill / Tujunga Canyon,,34.246765,-118.276459, 
2061,2061,Foothill / Tyler,,34.318249,-118.444046, 
2062,2062,Foothill / Van Nuys,,34.28083,-118.401611, 
2063,2063,Foothill / Vaughn,,34.289749,-118.411026, 
2064,2064,Foothill / Wentworth,,34.265053,-118.332802, 
2065,2065,Foothill / Wheatland,,34.27322,-118.352959, 
2066,2066,Foothill / Woodward,,34.259769,-118.307373, 
2067,2067,Foothill / Wyngate,,34.257744,-118.301086, 
2068,2068,Foster Bridge / Emil,,33.969803,-118.141449, 
2069,2069,Foster Bridge / Scout,,33.967705,-118.137428, 
2070,2070,Fountain / Hobart,,34.095001,-118.304436, 
2072,2072,Fountain / Berendo,,34.095367,-118.294823, 
2073,2073,Fountain / Edgemont,,34.095314,-118.296288, 
2074,2074,Fountain / Hoover,,34.095753,-118.284775, 
2075,2075,Fountain / Normandie,,34.095161,-118.300293, 
2076,2076,Fountain / Serrano,,34.094902,-118.306969, 
2077,2077,Vermont / Fountain,,34.095768,-118.291611, 
2078,2078,Fountain / Vermont,,34.095707,-118.290222, 
2080,2080,San Fernando / Future,,34.098755,-118.234016, 
2081,2081,Fountain / Western,,34.094826,-118.30896, 
2086,2086,Roscoe / Rhodes,,34.221527,-118.402733, 
2096,2096,Fremont / Maple,,34.101528,-118.152008, 
2097,2097,Fullerton Park & Ride Dock 14,,33.858601,-117.981186, 
2098,2098,San Fernando / Future,,34.098495,-118.234177, 
2099,2099,Saticoy / Kester,,34.208355,-118.457642, 
2100,2100,San Fernando / Macon,,34.10033,-118.235725, 
2101,2101,Gage / Perry,,33.973331,-118.144058, 
2102,2102,Gage / Salt Lake,,33.979748,-118.204521, 
2103,2103,Wilcox / Gage,,33.9767,-118.176575, 
2104,2104,Gage / Atlantic,,33.977848,-118.186653, 
2105,2105,Gage / Bear,,33.979004,-118.197472, 
2106,2106,Gage / Cesar E Chavez,,34.040321,-118.184723, 
2107,2107,Gage / Colmar,,33.97467,-118.15715, 
2108,2108,Gage / Darwell,,33.974041,-118.150528, 
2109,2109,Gage / Eastern,,33.975399,-118.163933, 
2110,2110,Gage / El Selinda,,33.974937,-118.15979, 
2111,2111,Gage / Heliotrope,,33.977112,-118.179749, 
2112,2112,Gage / Hollenbeck,,33.980076,-118.207527, 
2113,2113,Gage / Walker,,33.976444,-118.173523, 
2114,2114,Gage / Hood,,33.980312,-118.209686, 
2115,2115,Gage / Jaboneria,,33.974297,-118.152901, 
2116,2116,Gage / King,,33.977596,-118.184349, 
2117,2117,Gage / Malabar,,33.981506,-118.227913, 
2118,2118,Gage / Marconi,,33.980961,-118.21582, 
2119,2119,Gage / Maywood,,33.979519,-118.202454, 
2121,2121,Gage / Otis,,33.978428,-118.192146, 
2122,2122,Gage / Pacific,,33.981506,-118.224846, 
2124,2124,Gage / Santa Fe,,33.98151,-118.229942, 
2125,2125,Gage / Seville,,33.981503,-118.222809, 
2126,2126,Gage / State,,33.980637,-118.212769, 
2127,2127,Gage / Wilcox,,33.976799,-118.17691, 
2140,2140,Gardendale / Barlin,,33.911713,-118.145287, 
2141,2141,Gardendale / Downey,,33.914688,-118.151558, 
2147,2147,Via Campo / Vail,,34.032757,-118.12043, 
2157,2157,Garfield / Ferguson,,34.008163,-118.131538, 
2158,2158,Garfield / Florence,,33.965561,-118.151314, 
2159,2159,Flotilla / Garfield,,34.0056,-118.130409, 
2163,2163,Garfield / Monterey,,34.112705,-118.139809, 
2165,2165,Garfield / Oak,,34.107628,-118.13633, 
2170,2170,Garvanza / Avenue 63,,34.115803,-118.182404, 
2171,2171,Figueroa / 9th,,34.046043,-118.262764, 
2172,2172,Garvey / Chico,,34.062584,-118.060204, 
2173,2173,Garvey / Delta,,34.062527,-118.086502, 
2174,2174,Garvey / Hitchcock,,34.062023,-118.140305, 
2175,2175,Garvey / Kelburn,,34.062508,-118.094856, 
2176,2176,Garvey / Lee,,34.062576,-118.066978, 
2177,2177,Garvey / River,,34.062565,-118.073387, 
2178,2178,Garvey / Del Mar,,34.062489,-118.099197, 
2179,2179,Garvey / Jackson,,34.062473,-118.103928, 
2180,2180,Garvey / Muscatel,,34.06255,-118.0774, 
2181,2181,Garvey / San Gabriel,,34.062508,-118.090172, 
2182,2182,Garvey / Walnut Grove,,34.062538,-118.082153, 
2189,2189,Gayley / Landfair,,34.0658,-118.447807, 
2190,2190,Gayley / Landfair,,34.070358,-118.453308, 
2191,2191,Gayley / Strathmore,,34.068264,-118.448921, 
2193,2193,Glendale / Locksley,,34.106808,-118.262848, 
2194,2194,Glendale / Locksley,,34.107048,-118.262894, 
2195,2195,Glendale / Reservoir,,34.0783,-118.260246, 
2196,2196,Glendale / Deane,,34.098137,-118.259087, 
2198,2198,Glendale / Berkeley,,34.083885,-118.25985, 
2199,2199,Glendale / Clifford,,34.088654,-118.259254, 
2200,2200,Glendale / Cove,,34.09425,-118.259094, 
2202,2202,Glendale / Earl,,34.096027,-118.259079, 
2203,2203,Glendale / Effie,,34.085594,-118.259766, 
2204,2204,Glendale / Fargo,,34.092251,-118.258537, 
2205,2205,Glendale / Glenhurst,,34.116299,-118.26236, 
2206,2206,Glendale / La Clede,,34.120113,-118.258354, 
2207,2207,Glendale / Montana,,34.079567,-118.260048, 
2208,2208,Glendale / Park,,34.076492,-118.261368, 
2209,2209,Glendale / Riverside,,34.111237,-118.264915, 
2210,2210,Glendale / Santa Ynez,,34.074242,-118.261581, 
2211,2211,Glendale / Scott,,34.081715,-118.259918, 
2213,2213,Glendale / Waverly,,34.108307,-118.263611, 
2216,2216,Glenoaks / Gain,,34.269207,-118.406708, 
2217,2217,Glenoaks / Helen,,34.228981,-118.365425, 
2218,2218,Glenoaks / La Tuna Canyon,,34.234364,-118.371025, 
2220,2220,Tampa / Nordhoff,,34.235214,-118.553734, 
2221,2221,Glenoaks / Roscoe South Jog,,34.221252,-118.357597, 
2222,2222,Glenoaks / Shadyspring,,34.210857,-118.346062, 
2223,2223,Glenoaks / Peoria,,34.240486,-118.377853, 
2224,2224,Glenoaks / Arroyo,,34.285889,-118.424423, 
2228,2228,Glenoaks / Branford,,34.255089,-118.393303, 
2229,2229,Glenoaks / Cabrini,,34.209259,-118.344055, 
2230,2230,Glenoaks / Cohasset,,34.206852,-118.341553, 
2231,2231,Glenoaks / Filmore,,34.276638,-118.414604, 
2232,2232,San Fernando / Pacific,,34.136757,-118.264641, 
2233,2233,Glenoaks / Griswold,,34.288555,-118.427261, 
2234,2234,Glenoaks / Harding,,34.294003,-118.433022, 
2236,2236,Glenoaks / Roscoe South Jog,,34.221531,-118.357498, 
2238,2238,Glenoaks / Lanark,,34.218292,-118.354218, 
2239,2239,Glenoaks / Montague,,34.258629,-118.395813, 
2241,2241,Glenoaks / Brand,,34.290222,-118.429008, 
2242,2242,Glenoaks / Maclay,,34.291271,-118.430122, 
2243,2243,Glenoaks / Nettleton,,34.224903,-118.361481, 
2244,2244,Glenoaks / Orange Grove,,34.296719,-118.435898, 
2245,2245,Tampa / Nordhoff,,34.235767,-118.553429, 
2246,2246,Glenoaks / Osborne,,34.264935,-118.402023, 
2247,2247,Paxton / Glenoaks,,34.279743,-118.417671, 
2248,2248,Glenoaks / Pendleton,,34.237522,-118.37471, 
2249,2249,Glenoaks / Penrose,,34.231575,-118.368431, 
2250,2250,Glenoaks / Peoria,,34.240444,-118.377403, 
2251,2251,Glenoaks / Pierce,,34.270992,-118.408638, 
2252,2252,Glenoaks / Roscoe North Jog,,34.222725,-118.359337, 
2253,2253,Glenoaks / Hollywood Way,,34.21331,-118.348351, 
2254,2254,Glenoaks / Sheldon,,34.246464,-118.384163, 
2255,2255,Glenoaks / Osborne,,34.26524,-118.402351, 
2256,2256,Glenoaks / Truesdale,,34.249443,-118.387329, 
2257,2257,Glenoaks / Tuxford,,34.234211,-118.371201, 
2258,2258,Glenoaks / Van Nuys,,34.273972,-118.411789, 
2259,2259,Glenoaks / Vaughn,,34.282913,-118.421265, 
2260,2260,Foothill / Paxton,,34.286171,-118.407669, 
2261,2261,Prairie / Grace,,33.968285,-118.344101, 
2267,2267,Valley / Grand,,34.027229,-117.836044, 
2268,2268,Grand / La Puente,,34.030174,-117.837227, 
2269,2269,Grand / San Jose Hills,,34.046013,-117.849464, 
2270,2270,Grand / Shadow Mountain,,34.050278,-117.855827, 
2271,2271,Grand / Snow Creek,,34.035706,-117.839699, 
2272,2272,Grand / Adams,,34.026287,-118.272224, 
2276,2276,Granger / Florence,,33.965096,-118.150665, 
2281,2281,Greenleaf / Broadway,,33.986034,-118.037491, 
2283,2283,Greenleaf / Hadley,,33.983002,-118.037201, 
2291,2291,Greenleaf / Compton College Entrance,,33.881386,-118.208496, 
2292,2292,Gridley / 187th,,33.861107,-118.090988, 
2293,2293,3628 Griffin,,34.086514,-118.209267, 
2295,2295,Griffin / Avenue 28,,34.079109,-118.211746, 
2296,2296,Griffin / Avenue 31,,34.080803,-118.211769, 
2297,2297,Griffin / Avenue 33,,34.083279,-118.211861, 
2298,2298,Griffin / Avenue 35,,34.085091,-118.211403, 
2299,2299,Griffin / Avenue 39,,34.088921,-118.206482, 
2300,2300,Griffin / Avenue 41,,34.090103,-118.205307, 
2301,2301,Griffin / Avenue 43,,34.091702,-118.204109, 
2305,2305,Griffith Park / Hyperion,,34.106815,-118.272545, 
2306,2306,Saint George / Griffith Park,,34.108723,-118.274925, 
2315,2315,Harbor Transitway / 37th St,,34.017647,-118.27993, 
2317,2317,117th / RR-Xing,,33.927299,-118.279259, 
2319,2319,Hawthorne Green Line Station,,33.933586,-118.352463, 
2320,2320,Harbor Transitway / Manchester,,33.959789,-118.280571, 
2321,2321,Harbor Transitway / Rosecrans,,33.901745,-118.286415, 
2322,2322,Harbor Transitway / Slauson,,33.988682,-118.280212, 
2323,2323,Figueroa / Imperial,,33.930771,-118.282448, 
2324,2324,Harbor Transitway / I-105 Station,,33.928722,-118.280724, 
2330,2330,Culver / Pacific,,33.957844,-118.449333, 
2353,2353,Hawthorne / El Segundo,,33.916901,-118.352432, 
2354,2354,Hawthorne / Salvation Army,,33.745762,-118.398872, 
2359,2359,Hawthorne / 118th,,33.927128,-118.352448, 
2360,2360,Hawthorne / 120th,,33.923271,-118.352448, 
2361,2361,Hawthorne / 132nd,,33.912941,-118.352249, 
2362,2362,Hawthorne / 135th,,33.909496,-118.352242, 
2363,2363,Hawthorne / 138th,,33.906132,-118.352257, 
2364,2364,Hawthorne / 147th,,33.89854,-118.352242, 
2365,2365,Hawthorne / 154th,,33.890877,-118.352219, 
2366,2366,Hawthorne / 162nd,,33.883423,-118.352188, 
2367,2367,Hawthorne / 166th,,33.880409,-118.352234, 
2368,2368,Hawthorne / 169th,,33.877422,-118.352234, 
2369,2369,Hawthorne / 182nd,,33.865356,-118.35244, 
2371,2371,Hawthorne / 190th,,33.857994,-118.353493, 
2374,2374,Hawthorne / Via Rivera,,33.74902,-118.404694, 
2375,2375,Hawthorne / Blackhorse,,33.780418,-118.370148, 
2376,2376,Hawthorne / Broadway,,33.919819,-118.35244, 
2379,2379,Hawthorne / Carson,,33.831783,-118.352493, 
2382,2382,Hawthorne / Crest,,33.761139,-118.393211, 
2383,2383,Hawthorne / Del Amo,,33.848866,-118.353584, 
2385,2385,Hawthorne / Dupre,,33.752102,-118.395569, 
2389,2389,Hawthorne / Blackhorse,,33.780876,-118.369659, 
2390,2390,Hawthorne / Highdridge,,33.7789,-118.38459, 
2391,2391,Hawthorne / Indian Peak,,33.776531,-118.37809, 
2393,2393,Hawthorne / Lomita,,33.816189,-118.350967, 
2394,2394,Hawthorne / Los Verdes,,33.755169,-118.396019, 
2398,2398,Hawthorne / Manhattan Beach,,33.887657,-118.352226, 
2399,2399,Hawthorne / Marine,,33.894424,-118.352234, 
2400,2400,Hawthorne / Palos Verdes Dr North,,33.787979,-118.357681, 
2401,2401,Hawthorne / Newton,,33.79969,-118.35099, 
2402,2402,Hawthorne / Ocean Crest,,33.763252,-118.391731, 
2403,2403,Hawthorne / Pacific Coast Highway,,33.805309,-118.350975, 
2404,2404,Pacific Coast Highway / Hawthorne,,33.805092,-118.350914, 
2406,2406,Hawthorne / Redondo Beach,,33.874844,-118.352234, 
2407,2407,Hawthorne / Granvia Altamira,,33.77903,-118.391518, 
2408,2408,Hawthorne / Rolling Hills,,33.794437,-118.348938, 
2409,2409,Hawthorne / Rosecrans,,33.902237,-118.352249, 
2411,2411,Hawthorne / Seamount,,33.772797,-118.392166, 
2412,2412,Hawthorne / Sepulveda,,33.825851,-118.351395, 
2415,2415,Hawthorne / Skypark,,33.811584,-118.350983, 
2417,2417,Hawthorne / Torrance,,33.837856,-118.353508, 
2418,2418,Hawthorne / Vallon,,33.748486,-118.393745, 
2419,2419,Hawthorne / Indian Valley,,33.765633,-118.391045, 
2420,2420,Hawthorne / Via Rivera,,33.748756,-118.404816, 
2423,2423,Hayvenhurst / Saticoy,,34.208149,-118.494553, 
2424,2424,Hayvenhurst / Valerio,,34.205002,-118.494537, 
2429,2429,Hermosa / 10th,,33.860611,-118.399445, 
2435,2435,Hermosa / 2nd,,33.854805,-118.397957, 
2436,2436,Hermosa / 6th,,33.8577,-118.398697, 
2437,2437,Hermosa / 8th,,33.859177,-118.399078, 
2438,2438,Hermosa / Lyndon,,33.85297,-118.397453, 
2441,2441,Hilgard / Charing Cross,,34.077641,-118.438904, 
2442,2442,Hilgard / Le Conte,,34.064251,-118.440918, 
2443,2443,Hilgard / Manning,,34.066467,-118.43959, 
2452,2452,Hilgard / Wyton,,34.074379,-118.437935, 
2453,2453,Hill / Colorado,,34.145737,-118.121437, 
2454,2454,Hill / Colorado,,34.146233,-118.121201, 
2455,2455,San Gabriel / Celito,,34.047367,-118.090652, 
2456,2456,Hill / 7th,,34.045753,-118.254784, 
2459,2459,Hill / Martin Luther King Jr,,34.011303,-118.280434, 
2460,2460,Hill / Venice,,34.034885,-118.264542, 
2464,2464,Holloway / Hancock,,34.090721,-118.381302, 
2465,2465,Holloway / La Cienega,,34.090736,-118.376663, 
2468,2468,Hollywood / Genesee,,34.10157,-118.358383, 
2470,2470,Argyle / Hollywood,,34.101768,-118.325287, 
2471,2471,Hollywood / Argyle,,34.101757,-118.325043, 
2473,2473,Hollywood / Ivar,,34.101486,-118.328339, 
2474,2474,Hollywood / Alexandria,,34.101631,-118.298531, 
2476,2476,Hollywood / Argyle,,34.101505,-118.325363, 
2477,2477,Hollywood / Bronson,,34.101551,-118.318176, 
2478,2478,Hollywood / Cahuenga,,34.101475,-118.329788, 
2479,2479,Hollywood / Curson,,34.101536,-118.355202, 
2480,2480,Hollywood / Edgemont,,34.101635,-118.295944, 
2481,2481,Hollywood / Fuller,,34.101494,-118.349113, 
2482,2482,Hollywood / Gardner,,34.101521,-118.35302, 
2483,2483,Hollywood / Gower,,34.101521,-118.32254, 
2484,2484,Hollywood / Harvard,,34.10162,-118.304543, 
2485,2485,Hollywood / Highland,,34.101429,-118.338364, 
2487,2487,Hollywood / Las Palmas,,34.10144,-118.336304, 
2488,2488,Hollywood / Normandie,,34.101627,-118.300713, 
2490,2490,Hollywood / Sycamore,,34.101429,-118.343491, 
2491,2491,Hollywood / Vermont,,34.101196,-118.292, 
2493,2493,Hollywood / Western,,34.101601,-118.308945, 
2494,2494,Hollywood / Wilcox,,34.101467,-118.331207, 
2495,2495,Hollywood / Wilton,,34.101574,-118.313805, 
2497,2497,Hollywood / Vine,,34.101746,-118.327003, 
2498,2498,Hollywood / Whitley,,34.101452,-118.333496, 
2499,2499,Hollywood Way / Tulare,,34.202873,-118.348625, 
2503,2503,Hollywood Way / Clark,,34.164513,-118.345505, 
2504,2504,Hollywood Way / Verdugo,,34.160706,-118.343666, 
2508,2508,Holmes / 66th,,33.979443,-118.241089, 
2509,2509,Holmes / 68th,,33.977829,-118.241089, 
2512,2512,Holmes / Gage,,33.981823,-118.241104, 
2513,2513,Slauson / Holmes,,33.989094,-118.240829, 
2519,2519,Main / 1st,,34.052349,-118.24305, 
2520,2520,Honolulu / La Crescenta,,34.211456,-118.239761, 
2521,2521,Honolulu / Rosemont,,34.208778,-118.235435, 
2523,2523,Hoover / Plata,,34.078861,-118.284546, 
2524,2524,Hubbard / 4th,,34.2943,-118.444878, 
2525,2525,Hubbard / 1st,,34.291821,-118.44767, 
2526,2526,Hubbard / Garrick,,34.319771,-118.416267, 
2527,2527,Hubbard / Eldridge,,34.315498,-118.421059, 
2528,2528,Hubbard / Glenoaks,,34.299351,-118.439537, 
2529,2529,Hubbard / Herrick,,34.296692,-118.442528, 
2531,2531,Huntington / Atlantic,,34.106678,-118.13443, 
2532,2532,Huntington / Lifur,,34.089561,-118.16716, 
2533,2533,Huntington / Muscatel,,34.12941,-118.079674, 
2534,2534,Huntington / Poplar,,34.090248,-118.164742, 
2537,2537,Huntington / Story,,34.10886,-118.130882, 
2539,2539,Huntington / Sunnyslope,,34.127785,-118.087814, 
2540,2540,Huntington / West,,34.1194,-118.112007, 
2541,2541,Huntington / Alhambra,,34.098766,-118.155029, 
2542,2542,Hubbard / Foothill,,34.307186,-118.430389, 
2543,2543,Hubbard / Gladstone,,34.309818,-118.427414, 
2544,2544,Huntington / Bradbury,,34.12521,-118.096085, 
2545,2545,Huntington / Monterey,,34.086082,-118.187256, 
2546,2546,Huntington / Court,,34.10466,-118.137825, 
2547,2547,Huntington / Del Mar,,34.123791,-118.100128, 
2549,2549,Huntington / Fletcher,,34.103989,-118.142212, 
2550,2550,Hubbard / Fenton,,34.31255,-118.42437, 
2551,2551,Huntington / Fremont,,34.103867,-118.1521, 
2552,2552,Eldridge / Hubbard,,34.31543,-118.421684, 
2553,2553,Huntington / Granada,,34.11108,-118.127518, 
2554,2554,Hubbard / Fenton,,34.312973,-118.424271, 
2555,2555,Huntington / La Presa,,34.128681,-118.084824, 
2557,2557,Huntington / Maple,,34.101212,-118.154968, 
2558,2558,Hubbard / Gladstone,,34.310402,-118.427177, 
2559,2559,Huntington / Marengo,,34.104351,-118.146858, 
2560,2560,Huntington / Maycrest,,34.092773,-118.160988, 
2561,2561,Huntington / Methodist Hospital,,34.133129,-118.042198, 
2562,2562,Huntington / Eastern,,34.085865,-118.178368, 
2563,2563,Huntington / Gainsborough,,34.125576,-118.096771, 
2564,2564,Hubbard / Foothill,,34.30724,-118.430679, 
2565,2565,Huntington / San Gabriel,,34.126942,-118.090744, 
2566,2566,Huntington / Portola,,34.088474,-118.172211, 
2567,2567,Huntington / Primrose,,34.103951,-118.148865, 
2568,2568,Huntington / Pueblo,,34.087334,-118.174911, 
2569,2569,Huntington / Rosemead,,34.130142,-118.07341, 
